{
"type": "FeatureCollection",
"name": "all_attendees",
"crs": { "type": "name", "properties": { "name": "urn:ogc:def:crs:OGC:1.3:CRS84" } },
"features": [
{ "type": "Feature", "properties": { "Institu": "Saint Mary's University", "BillingStr": "923 Robie St", "Address": "923 Robie St", "City": "Halifax", "State": "Nova Scotia", "Zip": "B3H 3C3", "Country": "Canada", "addrtype": "building", "addrlocat": "university" }, "geometry": { "type": "Point", "coordinates": [ -63.581669154126097, 44.6313165 ] } },
{ "type": "Feature", "properties": { "Institu": "Aaniiih Nakoda College", "BillingStr": "PO Box 159", "Address": "PO Box 159", "City": "Harlem", "State": "Montana", "Zip": "59526", "Country": "United States", "addrtype": "place", "addrlocat": "city" }, "geometry": { "type": "Point", "coordinates": [ -108.786364, 48.530953 ] } },
{ "type": "Feature", "properties": { "Institu": "Abraham Lincoln University School of Law", "BillingStr": "100 W. Broadway, Ste 600", "Address": "100 W. Broadway, Ste 600", "City": "Glendale", "State": "California", "Zip": "91210", "Country": "United States", "addrtype": "shop", "addrlocat": "mall" }, "geometry": { "type": "Point", "coordinates": [ -118.258894195967997, 34.14468215 ] } },
{ "type": "Feature", "properties": { "Institu": "Abu Dhabi School of Management (ADSM)", "BillingStr": "Abu Dhabi - Al Salam Street", "Address": "Abu Dhabi - Al Salam Street", "City": "Abu Dhabi", "State": null, "Zip": null, "Country": "United Arab Emirates", "addrtype": "highway", "addrlocat": "trunk" }, "geometry": { "type": "Point", "coordinates": [ 54.4782167, 24.4142097 ] } },
{ "type": "Feature", "properties": { "Institu": "Acadia University", "BillingStr": null, "Address": null, "City": "Wolfville", "State": "Nova Scotia", "Zip": "B0P 1X0", "Country": "Canada", "addrtype": "boundary", "addrlocat": "administrative" }, "geometry": { "type": "Point", "coordinates": [ -64.3645102, 45.0914073 ] } },
{ "type": "Feature", "properties": { "Institu": "Acadiana Technical College", "BillingStr": "1101 Bertrand Dr", "Address": "1101 Bertrand Dr", "City": "Lafayette", "State": "Louisiana", "Zip": "70506-4909", "Country": "United States", "addrtype": "amenity", "addrlocat": "school" }, "geometry": { "type": "Point", "coordinates": [ -92.0506743, 30.2186445 ] } },
{ "type": "Feature", "properties": { "Institu": "Acupuncture & Integrative Medicine College, Berkeley", "BillingStr": "2550 Shattuck Avenue", "Address": "2550 Shattuck Avenue", "City": "Berkeley", "State": "California", "Zip": "94110", "Country": "United States", "addrtype": "place", "addrlocat": "house" }, "geometry": { "type": "Point", "coordinates": [ -122.267429, 37.862944 ] } },
{ "type": "Feature", "properties": { "Institu": "Adams State College", "BillingStr": "208 Edgemont Boulevard", "Address": "208 Edgemont Boulevard", "City": "Alamosa", "State": "Colorado", "Zip": "81102", "Country": "United States", "addrtype": "place", "addrlocat": "house" }, "geometry": { "type": "Point", "coordinates": [ -105.880656, 37.47277 ] } },
{ "type": "Feature", "properties": { "Institu": "Adelphi University", "BillingStr": "1 South Avenue", "Address": "1 South Avenue", "City": "Garden City", "State": "New York", "Zip": "11530", "Country": "United States", "addrtype": "highway", "addrlocat": "tertiary" }, "geometry": { "type": "Point", "coordinates": [ -73.6619828, 40.7227964 ] } },
{ "type": "Feature", "properties": { "Institu": "Adirondack Community College", "BillingStr": "640 Bay Road", "Address": "640 Bay Road", "City": "Queensbury", "State": "New York", "Zip": "12804", "Country": "United States", "addrtype": "amenity", "addrlocat": "school" }, "geometry": { "type": "Point", "coordinates": [ -73.6557479, 43.3523728 ] } },
{ "type": "Feature", "properties": { "Institu": "Adler University", "BillingStr": "17 N. Dearborn Street", "Address": "17 N. Dearborn Street", "City": "Chicago", "State": "Illinois", "Zip": "60602", "Country": "United States", "addrtype": "place", "addrlocat": "house" }, "geometry": { "type": "Point", "coordinates": [ -87.629307, 41.88247 ] } },
{ "type": "Feature", "properties": { "Institu": "Adler University - Vancouver", "BillingStr": "520 Seymour Street", "Address": "520 Seymour Street", "City": "Vancouver", "State": "British Columbia", "Zip": "V6B 3J5", "Country": "Canada", "addrtype": "place", "addrlocat": "house" }, "geometry": { "type": "Point", "coordinates": [ -123.114041, 49.2837269 ] } },
{ "type": "Feature", "properties": { "Institu": "Adtalem Global Education ? Shared Operations", "BillingStr": "3005 Highland Parkway", "Address": "3005 Highland Parkway", "City": "Downers Grove", "State": "Illinois", "Zip": "60515-9347", "Country": "United States", "addrtype": "building", "addrlocat": "yes" }, "geometry": { "type": "Point", "coordinates": [ -88.007573707989707, 41.8333193 ] } },
{ "type": "Feature", "properties": { "Institu": "AdventHealth University", "BillingStr": "671 Winyah Drive", "Address": "671 Winyah Drive", "City": "Orlando", "State": "Florida", "Zip": "32803", "Country": "United States", "addrtype": "highway", "addrlocat": "service" }, "geometry": { "type": "Point", "coordinates": [ -81.3691308, 28.5766915 ] } },
{ "type": "Feature", "properties": { "Institu": "Agnes Scott College", "BillingStr": "141 E College Avenue", "Address": "141 E College Avenue", "City": "Decatur", "State": "Georgia", "Zip": "30030-3797", "Country": "United States", "addrtype": "place", "addrlocat": "house" }, "geometry": { "type": "Point", "coordinates": [ -84.2955427317073, 33.769963853658503 ] } },
{ "type": "Feature", "properties": { "Institu": "AIB College of Business", "BillingStr": "2500 Fleur Drive", "Address": "2500 Fleur Drive", "City": "Des Moines", "State": "Iowa", "Zip": "50321-1799", "Country": "United States", "addrtype": "building", "addrlocat": "yes" }, "geometry": { "type": "Point", "coordinates": [ -93.645599093539204, 41.561984 ] } },
{ "type": "Feature", "properties": { "Institu": "Akron Institute (closed)", "BillingStr": "1625 Portage Trail", "Address": "1625 Portage Trail", "City": "Cuyahoga Falls", "State": "Ohio", "Zip": "44223", "Country": "United States", "addrtype": "building", "addrlocat": "yes" }, "geometry": { "type": "Point", "coordinates": [ -81.502066637594993, 41.14623375 ] } },
{ "type": "Feature", "properties": { "Institu": "Al Akhawayn University", "BillingStr": "Avenue Hassan II", "Address": "Avenue Hassan II", "City": "Ifrane", "State": null, "Zip": "53000", "Country": "Morocco", "addrtype": "highway", "addrlocat": "primary" }, "geometry": { "type": "Point", "coordinates": [ -5.1059886, 33.5326778 ] } },
{ "type": "Feature", "properties": { "Institu": "Alabama A&M University", "BillingStr": "Alabama A&M University\nPO Box 908", "Address": "Alabama A&M University", "City": "Normal", "State": "Alabama", "Zip": "35762", "Country": "United States", "addrtype": "amenity", "addrlocat": "library" }, "geometry": { "type": "Point", "coordinates": [ -86.5701979, 34.7836225 ] } },
{ "type": "Feature", "properties": { "Institu": "Alabama College of Osteopathic Medicine", "BillingStr": "1108 Ross Clark Circle\nSuite 210", "Address": "1108 Ross Clark Circle", "City": "Dothan", "State": "Alabama", "Zip": "36301", "Country": "United States", "addrtype": "amenity", "addrlocat": "hospital" }, "geometry": { "type": "Point", "coordinates": [ -85.3634325547835, 31.21582715 ] } },
{ "type": "Feature", "properties": { "Institu": "Alamo Colleges District Office", "BillingStr": "7990 Pat Booker Road", "Address": "7990 Pat Booker Road", "City": "Live Oak", "State": "Texas", "Zip": "78233", "Country": "United States", "addrtype": "highway", "addrlocat": "secondary" }, "geometry": { "type": "Point", "coordinates": [ -98.3317866, 29.5624699 ] } },
{ "type": "Feature", "properties": { "Institu": "Alaska Bible College", "BillingStr": "248 E. Elmwood Ave", "Address": "248 E. Elmwood Ave", "City": "Palmer", "State": "Alaska", "Zip": "99645", "Country": "United States", "addrtype": "place", "addrlocat": "house" }, "geometry": { "type": "Point", "coordinates": [ -149.112143999855988, 61.598762713537397 ] } },
{ "type": "Feature", "properties": { "Institu": "Alaska Pacific University", "BillingStr": "4101 University Drive", "Address": "4101 University Drive", "City": "Anchorage", "State": "Alaska", "Zip": "99508", "Country": "United States", "addrtype": "amenity", "addrlocat": "university" }, "geometry": { "type": "Point", "coordinates": [ -149.800779466617996, 61.19214405 ] } },
{ "type": "Feature", "properties": { "Institu": "Albany College of Pharmacy and Health Sciences", "BillingStr": "106 New Scotland Avenue", "Address": "106 New Scotland Avenue", "City": "Albany", "State": "New York", "Zip": "12208", "Country": "United States", "addrtype": "amenity", "addrlocat": "college" }, "geometry": { "type": "Point", "coordinates": [ -73.7786121914516, 42.65202585 ] } },
{ "type": "Feature", "properties": { "Institu": "Albany Law School", "BillingStr": "80 New Scotland Avenue", "Address": "80 New Scotland Avenue", "City": "Albany", "State": "New York", "Zip": "12208", "Country": "United States", "addrtype": "amenity", "addrlocat": "college" }, "geometry": { "type": "Point", "coordinates": [ -73.777461591935506, 42.6515463 ] } },
{ "type": "Feature", "properties": { "Institu": "Albany Medical College", "BillingStr": "43 New Scotland Avenue", "Address": "43 New Scotland Avenue", "City": "Albany", "State": "New York", "Zip": "12208", "Country": "United States", "addrtype": "amenity", "addrlocat": "hospital" }, "geometry": { "type": "Point", "coordinates": [ -73.776138438445898, 42.65377755 ] } },
{ "type": "Feature", "properties": { "Institu": "Albany State University", "BillingStr": "504 College Drive", "Address": "504 College Drive", "City": "Albany", "State": "Georgia", "Zip": "31705", "Country": "United States", "addrtype": "amenity", "addrlocat": "university" }, "geometry": { "type": "Point", "coordinates": [ -84.140579370693999, 31.5678798 ] } },
{ "type": "Feature", "properties": { "Institu": "Albany Technical College", "BillingStr": "1704 South Slappey Blvd", "Address": "1704 South Slappey Blvd", "City": "Albany", "State": "Georgia", "Zip": "31701", "Country": "United States", "addrtype": "place", "addrlocat": "house" }, "geometry": { "type": "Point", "coordinates": [ -84.1764184151086, 31.5547191470177 ] } },
{ "type": "Feature", "properties": { "Institu": "Albertus Magnus College", "BillingStr": "700 Prospect Street", "Address": "700 Prospect Street", "City": "New Haven", "State": "Connecticut", "Zip": "6511", "Country": "United States", "addrtype": "amenity", "addrlocat": "theatre" }, "geometry": { "type": "Point", "coordinates": [ -72.9245584, 41.3322334 ] } },
{ "type": "Feature", "properties": { "Institu": "Albion College", "BillingStr": "611 E. Porter", "Address": "611 E. Porter", "City": "Albion", "State": "Michigan", "Zip": "49224", "Country": "United States", "addrtype": "tourism", "addrlocat": "office" }, "geometry": { "type": "Point", "coordinates": [ -84.735236056597003, 42.2425109 ] } },
{ "type": "Feature", "properties": { "Institu": "Alexandria Technical College", "BillingStr": "1601 Jefferson Street", "Address": "1601 Jefferson Street", "City": "Alexandria", "State": "Minnesota", "Zip": "56308-2796", "Country": "United States", "addrtype": "place", "addrlocat": "house" }, "geometry": { "type": "Point", "coordinates": [ -95.373081959961596, 45.874056506384697 ] } },
{ "type": "Feature", "properties": { "Institu": "Alfred State SUNY College of Technology", "BillingStr": "10 Upper College Dr", "Address": "10 Upper College Dr", "City": "Alfred", "State": "New York", "Zip": "14802", "Country": "United States", "addrtype": "place", "addrlocat": "house" }, "geometry": { "type": "Point", "coordinates": [ -77.796935171444403, 42.255944028285697 ] } },
{ "type": "Feature", "properties": { "Institu": "Alfred University", "BillingStr": "Alfred University\nSaxon Drive", "Address": "Alfred University", "City": "Alfred", "State": "New York", "Zip": "14802", "Country": "United States", "addrtype": "amenity", "addrlocat": "university" }, "geometry": { "type": "Point", "coordinates": [ -77.785708705249107, 42.255862 ] } },
{ "type": "Feature", "properties": { "Institu": "Algoma University", "BillingStr": "1520 Queen Street East", "Address": "1520 Queen Street East", "City": "Sault Ste. Marie", "State": "Ontario", "Zip": "P6A2G4", "Country": "Canada", "addrtype": "amenity", "addrlocat": "school" }, "geometry": { "type": "Point", "coordinates": [ -84.2877433, 46.502247 ] } },
{ "type": "Feature", "properties": { "Institu": "Alice Lloyd College", "BillingStr": "100 Purpose Road", "Address": "100 Purpose Road", "City": "Pippa Passes", "State": "Kentucky", "Zip": "41844", "Country": "United States", "addrtype": "highway", "addrlocat": "secondary" }, "geometry": { "type": "Point", "coordinates": [ -82.870594, 37.339023 ] } },
{ "type": "Feature", "properties": { "Institu": "Allegheny College", "BillingStr": "520 N Main Street", "Address": "520 N Main Street", "City": "Meadville", "State": "Pennsylvania", "Zip": "16335", "Country": "United States", "addrtype": "place", "addrlocat": "house" }, "geometry": { "type": "Point", "coordinates": [ -80.146337029252194, 41.6472730800702 ] } },
{ "type": "Feature", "properties": { "Institu": "Allegheny Wesleyan College", "BillingStr": "2161 Woodsdale Rd.", "Address": "2161 Woodsdale Rd.", "City": "Salem", "State": "Ohio", "Zip": "44460", "Country": "United States", "addrtype": "place", "addrlocat": "house" }, "geometry": { "type": "Point", "coordinates": [ -80.860006679245302, 40.867181245283 ] } },
{ "type": "Feature", "properties": { "Institu": "Allen College", "BillingStr": "1825 Logan Avenue", "Address": "1825 Logan Avenue", "City": "Waterloo", "State": "Iowa", "Zip": "50703", "Country": "United States", "addrtype": "amenity", "addrlocat": "hospital" }, "geometry": { "type": "Point", "coordinates": [ -92.340235412951202, 42.5268787 ] } },
{ "type": "Feature", "properties": { "Institu": "Alliant International University", "BillingStr": "10455 Pomerado Road", "Address": "10455 Pomerado Road", "City": "San Diego", "State": "California", "Zip": "92131-1799", "Country": "United States", "addrtype": "place", "addrlocat": "house" }, "geometry": { "type": "Point", "coordinates": [ -117.093589, 32.897652 ] } },
{ "type": "Feature", "properties": { "Institu": "Allied American University", "BillingStr": "22952 Alcalde Drive", "Address": "22952 Alcalde Drive", "City": "Laguna Hills", "State": "California", "Zip": "92653", "Country": "United States", "addrtype": "place", "addrlocat": "house" }, "geometry": { "type": "Point", "coordinates": [ -117.729193724758005, 33.623449138546199 ] } },
{ "type": "Feature", "properties": { "Institu": "Alma College", "BillingStr": "614 West Superior Street", "Address": "614 West Superior Street", "City": "Alma", "State": "Michigan", "Zip": "48801", "Country": "United States", "addrtype": "amenity", "addrlocat": "university" }, "geometry": { "type": "Point", "coordinates": [ -84.671089031605504, 43.3805622 ] } },
{ "type": "Feature", "properties": { "Institu": "Alverno College", "BillingStr": "3400 South 43rd Street\nPO Box 343922", "Address": "3400 South 43rd Street", "City": "Milwaukee", "State": "Wisconsin", "Zip": "53234-3922", "Country": "United States", "addrtype": "amenity", "addrlocat": "university" }, "geometry": { "type": "Point", "coordinates": [ -87.965482236597197, 42.98375305 ] } },
{ "type": "Feature", "properties": { "Institu": "Alvin Community College", "BillingStr": "3110 Mustang Rd", "Address": "3110 Mustang Rd", "City": "Alvin", "State": "Texas", "Zip": "77511-4898", "Country": "United States", "addrtype": "place", "addrlocat": "house" }, "geometry": { "type": "Point", "coordinates": [ -95.236276310344806, 29.390072 ] } },
{ "type": "Feature", "properties": { "Institu": "Ambria College of Nursing", "BillingStr": "5210 Trillium Blvd", "Address": "5210 Trillium Blvd", "City": "Hoffman Estates", "State": "Illinois", "Zip": "60192", "Country": "United States", "addrtype": "place", "addrlocat": "house" }, "geometry": { "type": "Point", "coordinates": [ -88.209776553545893, 42.077712537395399 ] } },
{ "type": "Feature", "properties": { "Institu": "American Academy of Art", "BillingStr": "332 South Michigan Ave\n3rd Floor", "Address": "332 South Michigan Ave", "City": "Chicago", "State": "Illinois", "Zip": "60604-4302", "Country": "United States", "addrtype": "office", "addrlocat": "advertising_agency" }, "geometry": { "type": "Point", "coordinates": [ -87.6247761, 41.8774647 ] } },
{ "type": "Feature", "properties": { "Institu": "American Academy of Dramatic Arts", "BillingStr": "1336 N La Brea Ave", "Address": "1336 N La Brea Ave", "City": "Hollywood", "State": "California", "Zip": "90028", "Country": "United States", "addrtype": "place", "addrlocat": "house" }, "geometry": { "type": "Point", "coordinates": [ -118.343991673469006, 34.095028836734699 ] } },
{ "type": "Feature", "properties": { "Institu": "American Baptist College", "BillingStr": "1800 Baptist World Center Drive", "Address": "1800 Baptist World Center Drive", "City": "Nashville", "State": "Tennessee", "Zip": "37207", "Country": "United States", "addrtype": "highway", "addrlocat": "tertiary" }, "geometry": { "type": "Point", "coordinates": [ -86.7874784, 36.2011305 ] } },
{ "type": "Feature", "properties": { "Institu": "American Business & Technology University", "BillingStr": "1018 W. St. Maartens Drive", "Address": "1018 W. St. Maartens Drive", "City": "Saint Joseph", "State": "Missouri", "Zip": "64506", "Country": "United States", "addrtype": "place", "addrlocat": "house" }, "geometry": { "type": "Point", "coordinates": [ -94.820126639439806, 39.778883140146199 ] } },
{ "type": "Feature", "properties": { "Institu": "American Career College - Anaheim", "BillingStr": "1200 N. Magnolia Ave", "Address": "1200 N. Magnolia Ave", "City": "Anaheim", "State": "California", "Zip": "92801", "Country": "United States", "addrtype": "place", "addrlocat": "house" }, "geometry": { "type": "Point", "coordinates": [ -117.976055, 33.849434 ] } },
{ "type": "Feature", "properties": { "Institu": "American Career College - Long Beach", "BillingStr": "236 E 3rd Street", "Address": "236 E 3rd Street", "City": "Long Beach", "State": "California", "Zip": "90802", "Country": "United States", "addrtype": "place", "addrlocat": "house" }, "geometry": { "type": "Point", "coordinates": [ -118.182943416667001, 33.770009722222198 ] } },
{ "type": "Feature", "properties": { "Institu": "American Career College - Los Angeles", "BillingStr": "4021 Rosewood Avenue", "Address": "4021 Rosewood Avenue", "City": "Los Angeles", "State": "California", "Zip": "90004", "Country": "United States", "addrtype": "place", "addrlocat": "house" }, "geometry": { "type": "Point", "coordinates": [ -118.293019714286004, 34.078965 ] } },
{ "type": "Feature", "properties": { "Institu": "American Career College At St. Francis", "BillingStr": "3680 E. Imperial Highway\nSte. 500", "Address": "3680 E. Imperial Highway", "City": "Lynwood", "State": "California", "Zip": "90262", "Country": "United States", "addrtype": "highway", "addrlocat": "primary" }, "geometry": { "type": "Point", "coordinates": [ -118.1829726, 33.9307093 ] } },
{ "type": "Feature", "properties": { "Institu": "American Christian College and Seminary (closed)", "BillingStr": "4300 Highline Blvd.", "Address": "4300 Highline Blvd.", "City": "Oklahoma City", "State": "Oklahoma", "Zip": "73108", "Country": "United States", "addrtype": "place", "addrlocat": "house" }, "geometry": { "type": "Point", "coordinates": [ -97.596896, 35.456936 ] } },
{ "type": "Feature", "properties": { "Institu": "American College of Acupuncture and Oriental Medicine", "BillingStr": "9100 Park West Drive", "Address": "9100 Park West Drive", "City": "Houston", "State": "Texas", "Zip": "77063", "Country": "United States", "addrtype": "place", "addrlocat": "house" }, "geometry": { "type": "Point", "coordinates": [ -95.523753317754, 29.735478370798301 ] } },
{ "type": "Feature", "properties": { "Institu": "American College of Education", "BillingStr": "101 West Ohio St\nSuite 1200", "Address": "101 West Ohio St", "City": "Indianapolis", "State": "Indiana", "Zip": "46204", "Country": "United States", "addrtype": "office", "addrlocat": "lawyer" }, "geometry": { "type": "Point", "coordinates": [ -86.1601934, 39.7699698 ] } },
{ "type": "Feature", "properties": { "Institu": "American College of Healthcare Sciences", "BillingStr": "5005 SW Macadam Ave.", "Address": "5005 SW Macadam Ave.", "City": "Portland", "State": "Oregon", "Zip": "97239", "Country": "United States", "addrtype": "building", "addrlocat": "yes" }, "geometry": { "type": "Point", "coordinates": [ -122.675913597215001, 45.48689875 ] } },
{ "type": "Feature", "properties": { "Institu": "American College of Traditional Chinese Medicine (Unsubscribed)", "BillingStr": "455 Arkansas Street", "Address": "455 Arkansas Street", "City": "San Francisco", "State": "California", "Zip": "94107", "Country": "United States", "addrtype": "place", "addrlocat": "house" }, "geometry": { "type": "Point", "coordinates": [ -122.398168960857006, 37.760499950763197 ] } },
{ "type": "Feature", "properties": { "Institu": "American Indian College of the Assemblies of God", "BillingStr": "10020 North 15th Avenue", "Address": "10020 North 15th Avenue", "City": "Phoenix", "State": "Arizona", "Zip": "85021-2199", "Country": "United States", "addrtype": "place", "addrlocat": "house" }, "geometry": { "type": "Point", "coordinates": [ -112.091327848484994, 33.577226969697001 ] } },
{ "type": "Feature", "properties": { "Institu": "American Institute College of Health Professions (CANCELLED)", "BillingStr": "1420 Celebration Boulevard\nSuite 309", "Address": "1420 Celebration Boulevard", "City": "Celebration", "State": "Florida", "Zip": "34747", "Country": "United States", "addrtype": "place", "addrlocat": "house" }, "geometry": { "type": "Point", "coordinates": [ -81.5628652, 28.3123343 ] } },
{ "type": "Feature", "properties": { "Institu": "American InterContinental University - Dallas CLOSED", "BillingStr": "11830 Webb Chapel Road", "Address": "11830 Webb Chapel Road", "City": "Dallas", "State": "Texas", "Zip": "75234", "Country": "United States", "addrtype": "shop", "addrlocat": "clothes" }, "geometry": { "type": "Point", "coordinates": [ -96.8700710571011, 32.91046035 ] } },
{ "type": "Feature", "properties": { "Institu": "American InterContinental University - Houston", "BillingStr": "9999 Richmond Avenue", "Address": "9999 Richmond Avenue", "City": "Houston", "State": "Texas", "Zip": "77042", "Country": "United States", "addrtype": "highway", "addrlocat": "secondary" }, "geometry": { "type": "Point", "coordinates": [ -95.3987382, 29.7343703 ] } },
{ "type": "Feature", "properties": { "Institu": "American Intercontinental University - Online", "BillingStr": "231 N. Martingale Rd\n6th Floor", "Address": "231 N. Martingale Rd", "City": "Schaumburg", "State": "Illinois", "Zip": "60173", "Country": "United States", "addrtype": "place", "addrlocat": "house" }, "geometry": { "type": "Point", "coordinates": [ -88.033463322252899, 42.031835357489797 ] } },
{ "type": "Feature", "properties": { "Institu": "American InterContinental University - South Florida Campus", "BillingStr": "2250 N. Commerce Parkway", "Address": "2250 N. Commerce Parkway", "City": "Weston", "State": "Florida", "Zip": "33326", "Country": "United States", "addrtype": "place", "addrlocat": "house" }, "geometry": { "type": "Point", "coordinates": [ -80.3677062, 26.092247 ] } },
{ "type": "Feature", "properties": { "Institu": "American Intercontinental University-Central Administration", "BillingStr": "6600 Peachtree Dunwoody Road\n500 Embassy Road", "Address": "6600 Peachtree Dunwoody Road", "City": "Atlanta", "State": "Georgia", "Zip": "30328", "Country": "United States", "addrtype": "highway", "addrlocat": "secondary" }, "geometry": { "type": "Point", "coordinates": [ -84.3581125, 33.8551352 ] } },
{ "type": "Feature", "properties": { "Institu": "American InterContinental University-London", "BillingStr": "110 Marylebone High Street", "Address": "110 Marylebone High Street", "City": "London", "State": null, "Zip": "W1U 4RY", "Country": "United Kingdom", "addrtype": "shop", "addrlocat": "clothes" }, "geometry": { "type": "Point", "coordinates": [ -0.151875716742277, 51.51880785 ] } },
{ "type": "Feature", "properties": { "Institu": "American International College", "BillingStr": "1000 State Street", "Address": "1000 State Street", "City": "Springfield", "State": "Massachusetts", "Zip": "1109", "Country": "United States", "addrtype": "building", "addrlocat": "yes" }, "geometry": { "type": "Point", "coordinates": [ -72.557881800660795, 42.113816 ] } },
{ "type": "Feature", "properties": { "Institu": "American Islamic College", "BillingStr": "640 W. Irving Park Rd.", "Address": "640 W. Irving Park Rd.", "City": "Chicago", "State": "Illinois", "Zip": "60613", "Country": "United States", "addrtype": "amenity", "addrlocat": "school" }, "geometry": { "type": "Point", "coordinates": [ -87.6457926, 41.9549261 ] } },
{ "type": "Feature", "properties": { "Institu": "American Jewish University", "BillingStr": "15600 Mulholland Drive", "Address": "15600 Mulholland Drive", "City": "Los Angeles", "State": "California", "Zip": "90077", "Country": "United States", "addrtype": "place", "addrlocat": "house" }, "geometry": { "type": "Point", "coordinates": [ -118.47195, 34.128848 ] } },
{ "type": "Feature", "properties": { "Institu": "American Musical and Dramatic Academy College and Conservatory of the Performing", "BillingStr": "6305 Yucca Street", "Address": "6305 Yucca Street", "City": "Los Angeles", "State": "California", "Zip": "90028", "Country": "United States", "addrtype": "place", "addrlocat": "house" }, "geometry": { "type": "Point", "coordinates": [ -118.326886105263, 34.1038521578947 ] } },
{ "type": "Feature", "properties": { "Institu": "American Public University System", "BillingStr": "111 West Congress Street", "Address": "111 West Congress Street", "City": "Charles Town", "State": "West Virginia", "Zip": "25414", "Country": "United States", "addrtype": "building", "addrlocat": "yes" }, "geometry": { "type": "Point", "coordinates": [ -77.860087175908802, 39.2878007 ] } },
{ "type": "Feature", "properties": { "Institu": "American Sentinel University", "BillingStr": "2260 S. Xanadu Way, Ste. 310", "Address": "2260 S. Xanadu Way, Ste. 310", "City": "Aurora", "State": "Colorado", "Zip": "80114", "Country": "United States", "addrtype": "building", "addrlocat": "yes" }, "geometry": { "type": "Point", "coordinates": [ -104.831201043415007, 39.6765118 ] } },
{ "type": "Feature", "properties": { "Institu": "American University", "BillingStr": "4400 Massachusetts Ave NW", "Address": "4400 Massachusetts Ave NW", "City": "Washington", "State": "District of Columbia", "Zip": "20016-8001", "Country": "United States", "addrtype": "amenity", "addrlocat": "university" }, "geometry": { "type": "Point", "coordinates": [ -77.089392236519302, 38.93804505 ] } },
{ "type": "Feature", "properties": { "Institu": "American University in Bulgaria", "BillingStr": "Blagoevgrad 2700", "Address": "Blagoevgrad 2700", "City": "Blagoevgrad", "State": null, "Zip": "2700", "Country": "Bulgaria", "addrtype": "place", "addrlocat": "city" }, "geometry": { "type": "Point", "coordinates": [ 23.0906457, 42.0111077 ] } },
{ "type": "Feature", "properties": { "Institu": "American University in Cairo", "BillingStr": "AUC Avenue\nPO Box 74", "Address": "AUC Avenue", "City": "New Cairo", "State": null, "Zip": "11835", "Country": "Egypt", "addrtype": "place", "addrlocat": "village" }, "geometry": { "type": "Point", "coordinates": [ 31.5014894, 30.020531 ] } },
{ "type": "Feature", "properties": { "Institu": "American University in the Emirates", "BillingStr": "Dubai International Academic City\nBlock 6", "Address": "Dubai International Academic City", "City": "Dubai", "State": null, "Zip": null, "Country": "United Arab Emirates", "addrtype": "boundary", "addrlocat": "administrative" }, "geometry": { "type": "Point", "coordinates": [ 55.410242727575302, 25.1135211 ] } },
{ "type": "Feature", "properties": { "Institu": "American University of Antigua", "BillingStr": "2 Wall Street\n5th Floor", "Address": "2 Wall Street", "City": "New York", "State": "New York", "Zip": "10005", "Country": "United States", "addrtype": "building", "addrlocat": "yes" }, "geometry": { "type": "Point", "coordinates": [ -74.0113058670849, 40.70774275 ] } },
{ "type": "Feature", "properties": { "Institu": "American University of Beirut", "BillingStr": "New York Office\n305 E 47th St", "Address": "New York Office", "City": "New York", "State": "New York", "Zip": "10017-2303", "Country": "United States", "addrtype": "place", "addrlocat": "city" }, "geometry": { "type": "Point", "coordinates": [ -74.0060152, 40.7127281 ] } },
{ "type": "Feature", "properties": { "Institu": "American University of Health Sciences", "BillingStr": "1600 East Hill St\nBuilding #1", "Address": "1600 East Hill St", "City": "Signal Hill", "State": "California", "Zip": "90755", "Country": "United States", "addrtype": "place", "addrlocat": "house" }, "geometry": { "type": "Point", "coordinates": [ -118.171834, 33.797022 ] } },
{ "type": "Feature", "properties": { "Institu": "American University of Ras Al Khaimah", "BillingStr": "American University of Ras Al Khaimah Road", "Address": "American University of Ras Al Khaimah Road", "City": "Ras al Khaimah", "State": null, "Zip": "10021", "Country": "United Arab Emirates", "addrtype": "amenity", "addrlocat": "university" }, "geometry": { "type": "Point", "coordinates": [ 55.993749139365498, 25.7886701 ] } },
{ "type": "Feature", "properties": { "Institu": "Amherst College", "BillingStr": "Boltwood Avenue", "Address": "Boltwood Avenue", "City": "Amherst", "State": "Massachusetts", "Zip": "01002-5000", "Country": "United States", "addrtype": "highway", "addrlocat": "residential" }, "geometry": { "type": "Point", "coordinates": [ -72.5189273, 42.3747321 ] } },
{ "type": "Feature", "properties": { "Institu": "Amridge University", "BillingStr": "1200 Taylor Road", "Address": "1200 Taylor Road", "City": "Montgomery", "State": "Alabama", "Zip": "36117", "Country": "United States", "addrtype": "place", "addrlocat": "house" }, "geometry": { "type": "Point", "coordinates": [ -86.171523262026, 32.363880249299498 ] } },
{ "type": "Feature", "properties": { "Institu": "Ana G. Mendez University System", "BillingStr": "3010 N Stemmons Fwy.", "Address": "3010 N Stemmons Fwy.", "City": "Dallas", "State": "Texas", "Zip": "75247", "Country": "United States", "addrtype": "building", "addrlocat": "yes" }, "geometry": { "type": "Point", "coordinates": [ -96.855949956207098, 32.8126238 ] } },
{ "type": "Feature", "properties": { "Institu": "Andover Newton Theological School", "BillingStr": "210 Herrick Road", "Address": "210 Herrick Road", "City": "Newton Centre", "State": "Massachusetts", "Zip": "2159", "Country": "United States", "addrtype": "amenity", "addrlocat": "school" }, "geometry": { "type": "Point", "coordinates": [ -71.190451148665304, 42.32514865 ] } },
{ "type": "Feature", "properties": { "Institu": "Andrew College", "BillingStr": "501 College Street", "Address": "501 College Street", "City": "Cuthbert", "State": "Georgia", "Zip": "39840", "Country": "United States", "addrtype": "place", "addrlocat": "house" }, "geometry": { "type": "Point", "coordinates": [ -84.796755916238695, 31.771969875932999 ] } },
{ "type": "Feature", "properties": { "Institu": "Anna Maria College", "BillingStr": "50 Sunset Lane", "Address": "50 Sunset Lane", "City": "Paxton", "State": "Massachusetts", "Zip": "01612-1198", "Country": "United States", "addrtype": "amenity", "addrlocat": "library" }, "geometry": { "type": "Point", "coordinates": [ -71.9203460799353, 42.32974315 ] } },
{ "type": "Feature", "properties": { "Institu": "Anne Arundel Community College", "BillingStr": "101 College Parkway", "Address": "101 College Parkway", "City": "Arnold", "State": "Maryland", "Zip": "21012", "Country": "United States", "addrtype": "highway", "addrlocat": "secondary" }, "geometry": { "type": "Point", "coordinates": [ -76.4670908, 39.0361718 ] } },
{ "type": "Feature", "properties": { "Institu": "Anoka Technical College", "BillingStr": "1355 West Highway 10", "Address": "1355 West Highway 10", "City": "Anoka", "State": "Minnesota", "Zip": "55303", "Country": "United States", "addrtype": "highway", "addrlocat": "residential" }, "geometry": { "type": "Point", "coordinates": [ -93.414263, 45.214013 ] } },
{ "type": "Feature", "properties": { "Institu": "Antelope Valley College", "BillingStr": "3041 West Avenue K", "Address": "3041 West Avenue K", "City": "Lancaster", "State": "California", "Zip": "93536", "Country": "United States", "addrtype": "place", "addrlocat": "house" }, "geometry": { "type": "Point", "coordinates": [ -118.187173117569998, 34.674923963833301 ] } },
{ "type": "Feature", "properties": { "Institu": "Anthem College - Phoenix (Closed)", "BillingStr": "1515 E. Indian School Road", "Address": "1515 E. Indian School Road", "City": "Phoenix", "State": "Arizona", "Zip": "85014", "Country": "United States", "addrtype": "highway", "addrlocat": "secondary" }, "geometry": { "type": "Point", "coordinates": [ -112.044389, 33.4946452 ] } },
{ "type": "Feature", "properties": { "Institu": "Anthem Institute", "BillingStr": "959 Route 46 East", "Address": "959 Route 46 East", "City": "Parsippany", "State": "New Jersey", "Zip": "7054", "Country": "United States", "addrtype": "place", "addrlocat": "house" }, "geometry": { "type": "Point", "coordinates": [ -74.377726065017001, 40.862178707889697 ] } },
{ "type": "Feature", "properties": { "Institu": "Antioch School of Church Planting and Leadership Development", "BillingStr": "2400 Oakwood Road", "Address": "2400 Oakwood Road", "City": "Ames", "State": "Iowa", "Zip": "50014", "Country": "United States", "addrtype": "place", "addrlocat": "house" }, "geometry": { "type": "Point", "coordinates": [ -93.654974, 41.99695 ] } },
{ "type": "Feature", "properties": { "Institu": "Antioch University", "BillingStr": "900 Dayton St.", "Address": "900 Dayton St.", "City": "Yellow Springs", "State": "Ohio", "Zip": "45387", "Country": "United States", "addrtype": "place", "addrlocat": "house" }, "geometry": { "type": "Point", "coordinates": [ -83.956808544521706, 39.7905292948453 ] } },
{ "type": "Feature", "properties": { "Institu": "Antioch University - Midwest", "BillingStr": "900 Dayton St", "Address": "900 Dayton St", "City": "Yellow Springs", "State": "Ohio", "Zip": "45387", "Country": "United States", "addrtype": "place", "addrlocat": "house" }, "geometry": { "type": "Point", "coordinates": [ -83.956808544521706, 39.7905292948453 ] } },
{ "type": "Feature", "properties": { "Institu": "Antioch University - New England", "BillingStr": "40 Avon Street", "Address": "40 Avon Street", "City": "Keene", "State": "New Hampshire", "Zip": "03431-3552", "Country": "United States", "addrtype": "place", "addrlocat": "house" }, "geometry": { "type": "Point", "coordinates": [ -72.29372096, 42.93309184 ] } },
{ "type": "Feature", "properties": { "Institu": "Antioch University - Records and Registration", "BillingStr": "150 E South College Street", "Address": "150 E South College Street", "City": "Yellow Springs", "State": "Ohio", "Zip": "45387", "Country": "United States", "addrtype": "place", "addrlocat": "house" }, "geometry": { "type": "Point", "coordinates": [ -83.89016, 39.798792 ] } },
{ "type": "Feature", "properties": { "Institu": "Antioch University - Santa Barbara Branch", "BillingStr": "602 Anacapa St", "Address": "602 Anacapa St", "City": "Santa Barbara", "State": "California", "Zip": "93101-1580", "Country": "United States", "addrtype": "amenity", "addrlocat": "university" }, "geometry": { "type": "Point", "coordinates": [ -119.6957628, 34.4193043 ] } },
{ "type": "Feature", "properties": { "Institu": "Antioch University - Seattle Branch", "BillingStr": "2400 3rd Ave #200", "Address": "2400 3rd Ave #200", "City": "Seattle", "State": "Washington", "Zip": "98121", "Country": "United States", "addrtype": "amenity", "addrlocat": "parking_entrance" }, "geometry": { "type": "Point", "coordinates": [ -122.3463989, 47.6162086 ] } },
{ "type": "Feature", "properties": { "Institu": "Antonelli College", "BillingStr": "124 East Seventh Street", "Address": "124 East Seventh Street", "City": "Cincinnati", "State": "Ohio", "Zip": "45202", "Country": "United States", "addrtype": "place", "addrlocat": "house" }, "geometry": { "type": "Point", "coordinates": [ -84.510950590249095, 39.1041781108176 ] } },
{ "type": "Feature", "properties": { "Institu": "AOMA Graduate School of Integrative Medicine", "BillingStr": "4701 West Gate Blvd", "Address": "4701 West Gate Blvd", "City": "Austin", "State": "Texas", "Zip": "78745", "Country": "United States", "addrtype": "building", "addrlocat": "yes" }, "geometry": { "type": "Point", "coordinates": [ -97.800855615026293, 30.228651 ] } },
{ "type": "Feature", "properties": { "Institu": "Apollos University", "BillingStr": "17011 Beach Blvd\nSuite 900", "Address": "17011 Beach Blvd", "City": "Huntington Beach", "State": "California", "Zip": "93647", "Country": "United States", "addrtype": "place", "addrlocat": "house" }, "geometry": { "type": "Point", "coordinates": [ -117.989094631518, 33.715370417735897 ] } },
{ "type": "Feature", "properties": { "Institu": "Appalachian State University", "BillingStr": "423 West King Street", "Address": "423 West King Street", "City": "Boone", "State": "North Carolina", "Zip": "28608", "Country": "United States", "addrtype": "amenity", "addrlocat": "university" }, "geometry": { "type": "Point", "coordinates": [ -81.680656614769902, 36.2170219 ] } },
{ "type": "Feature", "properties": { "Institu": "Aquinas College", "BillingStr": "4210 Harding Road", "Address": "4210 Harding Road", "City": "Nashville", "State": "Tennessee", "Zip": "37205-2005", "Country": "United States", "addrtype": "highway", "addrlocat": "residential" }, "geometry": { "type": "Point", "coordinates": [ -86.861316, 36.096795 ] } },
{ "type": "Feature", "properties": { "Institu": "Aquinas College (closed)", "BillingStr": "303 Adams Street", "Address": "303 Adams Street", "City": "Milton", "State": "Massachusetts", "Zip": "02186-4296", "Country": "United States", "addrtype": "building", "addrlocat": "yes" }, "geometry": { "type": "Point", "coordinates": [ -71.0585187389525, 42.2606988 ] } },
{ "type": "Feature", "properties": { "Institu": "Aquinas Institute of Theology", "BillingStr": "23 South Spring Avenue", "Address": "23 South Spring Avenue", "City": "St Louis", "State": "Missouri", "Zip": "63108", "Country": "United States", "addrtype": "building", "addrlocat": "yes" }, "geometry": { "type": "Point", "coordinates": [ -90.237811641898404, 38.6344093 ] } },
{ "type": "Feature", "properties": { "Institu": "Arapahoe Community College", "BillingStr": "2500 West College Dr\nPO Box 9002", "Address": "2500 West College Dr", "City": "Littleton", "State": "Colorado", "Zip": "80160-9002", "Country": "United States", "addrtype": "place", "addrlocat": "house" }, "geometry": { "type": "Point", "coordinates": [ -105.018281683417001, 39.608939768844202 ] } },
{ "type": "Feature", "properties": { "Institu": "Arcadia University", "BillingStr": "450 S Easton Road", "Address": "450 S Easton Road", "City": "Glenside", "State": "Pennsylvania", "Zip": "19038-3295", "Country": "United States", "addrtype": "place", "addrlocat": "house" }, "geometry": { "type": "Point", "coordinates": [ -75.1459571954491, 40.1084976932733 ] } },
{ "type": "Feature", "properties": { "Institu": "Argosy University", "BillingStr": "225 N. Michigan Avenue\nSuite 1300", "Address": "225 N. Michigan Avenue", "City": "Chicago", "State": "Illinois", "Zip": "60601", "Country": "United States", "addrtype": "amenity", "addrlocat": "restaurant" }, "geometry": { "type": "Point", "coordinates": [ -87.6238717, 41.8865465 ] } },
{ "type": "Feature", "properties": { "Institu": "Argosy University, Dallas", "BillingStr": "5001 Lyndon B. Johnson Freeway", "Address": "5001 Lyndon B. Johnson Freeway", "City": "Dallas", "State": "Texas", "Zip": "75244", "Country": "United States", "addrtype": "highway", "addrlocat": "motorway" }, "geometry": { "type": "Point", "coordinates": [ -96.7980994, 32.9252201 ] } },
{ "type": "Feature", "properties": { "Institu": "Arizona Christian University", "BillingStr": "2625 East Cactus Road", "Address": "2625 East Cactus Road", "City": "Phoenix", "State": "Arizona", "Zip": "85032", "Country": "United States", "addrtype": "place", "addrlocat": "house" }, "geometry": { "type": "Point", "coordinates": [ -112.025872279622007, 33.596722684151203 ] } },
{ "type": "Feature", "properties": { "Institu": "Arizona State University - West", "BillingStr": "4701 W Thunderbird Road", "Address": "4701 W Thunderbird Road", "City": "Glendale", "State": "Arizona", "Zip": "85306", "Country": "United States", "addrtype": "highway", "addrlocat": "secondary" }, "geometry": { "type": "Point", "coordinates": [ -112.2221774, 33.6102937 ] } },
{ "type": "Feature", "properties": { "Institu": "Arkansas Colleges of Health Education", "BillingStr": "7000 Chad Colley Blvd.", "Address": "7000 Chad Colley Blvd.", "City": "Fort Smith", "State": "Arkansas", "Zip": "72916", "Country": "United States", "addrtype": "highway", "addrlocat": "tertiary" }, "geometry": { "type": "Point", "coordinates": [ -94.3336787, 35.2983577 ] } },
{ "type": "Feature", "properties": { "Institu": "Arkansas State University - Main Campus", "BillingStr": "2105 Aggie Road", "Address": "2105 Aggie Road", "City": "Jonesboro", "State": "Arkansas", "Zip": "72467-1570", "Country": "United States", "addrtype": "amenity", "addrlocat": "school" }, "geometry": { "type": "Point", "coordinates": [ -90.6798669, 35.8423306 ] } },
{ "type": "Feature", "properties": { "Institu": "Arkansas State University - Newport", "BillingStr": "7648 Victory Blvd", "Address": "7648 Victory Blvd", "City": "Newport", "State": "Arkansas", "Zip": "72473", "Country": "United States", "addrtype": "highway", "addrlocat": "tertiary" }, "geometry": { "type": "Point", "coordinates": [ -91.1871297, 35.6396373 ] } },
{ "type": "Feature", "properties": { "Institu": "Arkansas State Universty - Mid-South", "BillingStr": "2000 West Broadway", "Address": "2000 West Broadway", "City": "West Memphis", "State": "Arkansas", "Zip": "72301", "Country": "United States", "addrtype": "highway", "addrlocat": "primary" }, "geometry": { "type": "Point", "coordinates": [ -90.1857564, 35.1465164 ] } },
{ "type": "Feature", "properties": { "Institu": "Arkansas Tech University", "BillingStr": "1505 North Boulder Ave\nRoom 302", "Address": "1505 North Boulder Ave", "City": "Russellville", "State": "Arkansas", "Zip": "72801", "Country": "United States", "addrtype": "place", "addrlocat": "house" }, "geometry": { "type": "Point", "coordinates": [ -93.134739354054602, 35.293447879758403 ] } },
{ "type": "Feature", "properties": { "Institu": "Armstrong State University", "BillingStr": "11935 Abercorn Street", "Address": "11935 Abercorn Street", "City": "Savannah", "State": "Georgia", "Zip": "31406", "Country": "United States", "addrtype": "amenity", "addrlocat": "university" }, "geometry": { "type": "Point", "coordinates": [ -81.162732433258, 31.9782127 ] } },
{ "type": "Feature", "properties": { "Institu": "Armstrong University", "BillingStr": "495 10th Street", "Address": "495 10th Street", "City": "Oakland", "State": "California", "Zip": "94607", "Country": "United States", "addrtype": "place", "addrlocat": "house" }, "geometry": { "type": "Point", "coordinates": [ -122.275126553505999, 37.802507680136202 ] } },
{ "type": "Feature", "properties": { "Institu": "Army University Registrar", "BillingStr": "100 Stimson Ave.", "Address": "100 Stimson Ave.", "City": "Fort Leavenworth", "State": "Kansas", "Zip": "66027", "Country": "United States", "addrtype": "highway", "addrlocat": "unclassified" }, "geometry": { "type": "Point", "coordinates": [ -94.9170771, 39.3437901 ] } },
{ "type": "Feature", "properties": { "Institu": "Art Center College of Design", "BillingStr": "1700 Lida Street", "Address": "1700 Lida Street", "City": "Pasadena", "State": "California", "Zip": "91103", "Country": "United States", "addrtype": "place", "addrlocat": "house" }, "geometry": { "type": "Point", "coordinates": [ -118.188975585400001, 34.171135439039297 ] } },
{ "type": "Feature", "properties": { "Institu": "Art Institute of Atlanta", "BillingStr": "6600 Peachtree Dunwoody Road NE\n100 Embassy Row", "Address": "6600 Peachtree Dunwoody Road NE", "City": "Atlanta", "State": "Georgia", "Zip": "30328-1649", "Country": "United States", "addrtype": "highway", "addrlocat": "secondary" }, "geometry": { "type": "Point", "coordinates": [ -84.3581125, 33.8551352 ] } },
{ "type": "Feature", "properties": { "Institu": "Art Institute of California - Argosy University Hollywood", "BillingStr": "5250 Lankershim Blvd", "Address": "5250 Lankershim Blvd", "City": "N Hollywood", "State": "California", "Zip": "91601-3112", "Country": "United States", "addrtype": "highway", "addrlocat": "primary" }, "geometry": { "type": "Point", "coordinates": [ -118.3877825, 34.2120851 ] } },
{ "type": "Feature", "properties": { "Institu": "Art Institute of California - Inland Empire", "BillingStr": "674 E. Brier Drive", "Address": "674 E. Brier Drive", "City": "San Bernardino", "State": "California", "Zip": "92408", "Country": "United States", "addrtype": "place", "addrlocat": "house" }, "geometry": { "type": "Point", "coordinates": [ -117.271552065988999, 34.070625401284801 ] } },
{ "type": "Feature", "properties": { "Institu": "Art Institute of California - San Diego", "BillingStr": "7650 Mission Valley Road", "Address": "7650 Mission Valley Road", "City": "San Diego", "State": "California", "Zip": "92108", "Country": "United States", "addrtype": "place", "addrlocat": "house" }, "geometry": { "type": "Point", "coordinates": [ -117.155302, 32.779218 ] } },
{ "type": "Feature", "properties": { "Institu": "Art Institute of California - Silicon Valley", "BillingStr": "1120 Kifer Road", "Address": "1120 Kifer Road", "City": "Sunnyvale", "State": "California", "Zip": "94086", "Country": "United States", "addrtype": "highway", "addrlocat": "secondary" }, "geometry": { "type": "Point", "coordinates": [ -121.9957241, 37.3738775 ] } },
{ "type": "Feature", "properties": { "Institu": "Art Institute of California ? San Francisco", "BillingStr": "1170 Market Street", "Address": "1170 Market Street", "City": "San Francisco", "State": "California", "Zip": "94102", "Country": "United States", "addrtype": "amenity", "addrlocat": "college" }, "geometry": { "type": "Point", "coordinates": [ -122.4142082, 37.7794901 ] } },
{ "type": "Feature", "properties": { "Institu": "Art Institute of Charleston", "BillingStr": "24 North Market Street", "Address": "24 North Market Street", "City": "Charleston", "State": "South Carolina", "Zip": "29401", "Country": "United States", "addrtype": "place", "addrlocat": "house" }, "geometry": { "type": "Point", "coordinates": [ -79.927209, 32.781287 ] } },
{ "type": "Feature", "properties": { "Institu": "Art Institute of Colorado", "BillingStr": "1200 Lincoln Street", "Address": "1200 Lincoln Street", "City": "Denver", "State": "Colorado", "Zip": "80203", "Country": "United States", "addrtype": "building", "addrlocat": "yes" }, "geometry": { "type": "Point", "coordinates": [ -104.985785240287996, 39.7356205 ] } },
{ "type": "Feature", "properties": { "Institu": "Art Institute of Fort Lauderdale", "BillingStr": "1799 SE 17th Street", "Address": "1799 SE 17th Street", "City": "Ft. Lauderdale", "State": "Florida", "Zip": "33316", "Country": "United States", "addrtype": "amenity", "addrlocat": "training" }, "geometry": { "type": "Point", "coordinates": [ -80.123543, 26.101064 ] } },
{ "type": "Feature", "properties": { "Institu": "Art Institute of Houston", "BillingStr": "4140 Southwest Freeway", "Address": "4140 Southwest Freeway", "City": "Houston", "State": "Texas", "Zip": "77027", "Country": "United States", "addrtype": "highway", "addrlocat": "motorway" }, "geometry": { "type": "Point", "coordinates": [ -95.4009698, 29.7309841 ] } },
{ "type": "Feature", "properties": { "Institu": "Art Institute of Las Vegas", "BillingStr": "2350 Corporate Circle", "Address": "2350 Corporate Circle", "City": "Henderson", "State": "Nevada", "Zip": "89074-7737", "Country": "United States", "addrtype": "place", "addrlocat": "house" }, "geometry": { "type": "Point", "coordinates": [ -115.089273221956006, 36.025751718484102 ] } },
{ "type": "Feature", "properties": { "Institu": "Art Institute of Los Angeles", "BillingStr": "2900 31st Street", "Address": "2900 31st Street", "City": "Santa Monica", "State": "California", "Zip": "90405", "Country": "United States", "addrtype": "place", "addrlocat": "house" }, "geometry": { "type": "Point", "coordinates": [ -118.451799209938002, 34.019892883790298 ] } },
{ "type": "Feature", "properties": { "Institu": "Art Institute of Orange County", "BillingStr": "3601 W Sunflower Avenue", "Address": "3601 W Sunflower Avenue", "City": "Santa Ana", "State": "California", "Zip": "92704", "Country": "United States", "addrtype": "highway", "addrlocat": "secondary" }, "geometry": { "type": "Point", "coordinates": [ -117.9174554, 33.6957061 ] } },
{ "type": "Feature", "properties": { "Institu": "Art Institute of Philadelphia", "BillingStr": "1622 Chestnut Street", "Address": "1622 Chestnut Street", "City": "Philadelphia", "State": "Pennsylvania", "Zip": "19103", "Country": "United States", "addrtype": "building", "addrlocat": "yes" }, "geometry": { "type": "Point", "coordinates": [ -75.168130812285796, 39.95110945 ] } },
{ "type": "Feature", "properties": { "Institu": "Art Institute of Phoenix", "BillingStr": "2233 W Dunlap Avenue", "Address": "2233 W Dunlap Avenue", "City": "Phoenix", "State": "Arizona", "Zip": "85021", "Country": "United States", "addrtype": "highway", "addrlocat": "secondary" }, "geometry": { "type": "Point", "coordinates": [ -112.1205236, 33.567668 ] } },
{ "type": "Feature", "properties": { "Institu": "Art Institute of Pittsburgh", "BillingStr": "526 Penn Avenue", "Address": "526 Penn Avenue", "City": "Pittsburgh", "State": "Pennsylvania", "Zip": "15222", "Country": "United States", "addrtype": "highway", "addrlocat": "primary" }, "geometry": { "type": "Point", "coordinates": [ -79.9212194, 40.4600908 ] } },
{ "type": "Feature", "properties": { "Institu": "Art Institute of Portland", "BillingStr": "1122 NW Davis Street", "Address": "1122 NW Davis Street", "City": "Portland", "State": "Oregon", "Zip": "97209-2911", "Country": "United States", "addrtype": "place", "addrlocat": "house" }, "geometry": { "type": "Point", "coordinates": [ -122.682485326530994, 45.524296755102 ] } },
{ "type": "Feature", "properties": { "Institu": "Art Institute of Seattle (unsubscribed)", "BillingStr": "2323 Elliott Avenue", "Address": "2323 Elliott Avenue", "City": "Seattle", "State": "Washington", "Zip": "98121", "Country": "United States", "addrtype": "place", "addrlocat": "house" }, "geometry": { "type": "Point", "coordinates": [ -122.3491939, 47.6122895 ] } },
{ "type": "Feature", "properties": { "Institu": "Art Institute of Tucson", "BillingStr": "5099 E Grant Rd # 100", "Address": "5099 E Grant Rd # 100", "City": "Tucson", "State": "Arizona", "Zip": "85712-2733", "Country": "United States", "addrtype": "highway", "addrlocat": "secondary" }, "geometry": { "type": "Point", "coordinates": [ -110.8514624, 32.249825 ] } },
{ "type": "Feature", "properties": { "Institu": "Art Institute of Virginia Beach", "BillingStr": "4500 Main Street\nSuite 100", "Address": "4500 Main Street", "City": "Virginia Beach", "State": "Virginia", "Zip": "23462", "Country": "United States", "addrtype": "shop", "addrlocat": "optician" }, "geometry": { "type": "Point", "coordinates": [ -76.1314327, 36.8422524 ] } },
{ "type": "Feature", "properties": { "Institu": "Art Institute Online", "BillingStr": "420 Boulevard of the Allies", "Address": "420 Boulevard of the Allies", "City": "Pittsburgh", "State": "Pennsylvania", "Zip": "15219", "Country": "United States", "addrtype": "building", "addrlocat": "yes" }, "geometry": { "type": "Point", "coordinates": [ -79.999687410826297, 40.4372092 ] } },
{ "type": "Feature", "properties": { "Institu": "Art Institutes International Minnesota", "BillingStr": "15 South 9th Street", "Address": "15 South 9th Street", "City": "Minneapolis", "State": "Minnesota", "Zip": "55402", "Country": "United States", "addrtype": "place", "addrlocat": "house" }, "geometry": { "type": "Point", "coordinates": [ -93.2762554, 44.9759402 ] } },
{ "type": "Feature", "properties": { "Institu": "ASA Institute of Business and Computer Technology, Inc.", "BillingStr": "81 Willoughby Street", "Address": "81 Willoughby Street", "City": "Brooklyn", "State": "New York", "Zip": "11201-9805", "Country": "United States", "addrtype": "amenity", "addrlocat": "clinic" }, "geometry": { "type": "Point", "coordinates": [ -73.985974, 40.6924274 ] } },
{ "type": "Feature", "properties": { "Institu": "Asbury Theological Seminary", "BillingStr": "204 N. Lexington Avenue", "Address": "204 N. Lexington Avenue", "City": "Wilmore", "State": "Kentucky", "Zip": "40390", "Country": "United States", "addrtype": "place", "addrlocat": "house" }, "geometry": { "type": "Point", "coordinates": [ -84.661510376071504, 37.8620055273364 ] } },
{ "type": "Feature", "properties": { "Institu": "Asbury University", "BillingStr": "1 Macklem Drive", "Address": "1 Macklem Drive", "City": "Wilmore", "State": "Kentucky", "Zip": "40390", "Country": "United States", "addrtype": "amenity", "addrlocat": "university" }, "geometry": { "type": "Point", "coordinates": [ -84.6619297832748, 37.863264 ] } },
{ "type": "Feature", "properties": { "Institu": "Asheville-Buncombe Technical Community College (Cancelled)", "BillingStr": "340 Victoria Rd", "Address": "340 Victoria Rd", "City": "Asheville", "State": "North Carolina", "Zip": "28801", "Country": "United States", "addrtype": "building", "addrlocat": "yes" }, "geometry": { "type": "Point", "coordinates": [ -82.555150790556198, 35.5719536 ] } },
{ "type": "Feature", "properties": { "Institu": "Ashford University", "BillingStr": "1310 19th Ave NW", "Address": "1310 19th Ave NW", "City": "Clinton", "State": "Iowa", "Zip": "52732-2752", "Country": "United States", "addrtype": "highway", "addrlocat": "primary" }, "geometry": { "type": "Point", "coordinates": [ -90.1809298, 41.8659456 ] } },
{ "type": "Feature", "properties": { "Institu": "Ashland Community and Technical College", "BillingStr": "1400 College Drive", "Address": "1400 College Drive", "City": "Ashland", "State": "Kentucky", "Zip": "41101", "Country": "United States", "addrtype": "place", "addrlocat": "house" }, "geometry": { "type": "Point", "coordinates": [ -82.651682, 38.468542 ] } },
{ "type": "Feature", "properties": { "Institu": "Ashland Theological Seminary", "BillingStr": "910 Center Street", "Address": "910 Center Street", "City": "Ashland", "State": "Ohio", "Zip": "44805", "Country": "United States", "addrtype": "amenity", "addrlocat": "university" }, "geometry": { "type": "Point", "coordinates": [ -82.312691004262803, 40.8604481 ] } },
{ "type": "Feature", "properties": { "Institu": "Ashland University", "BillingStr": "401 College Avenue", "Address": "401 College Avenue", "City": "Ashland", "State": "Ohio", "Zip": "44805-3799", "Country": "United States", "addrtype": "amenity", "addrlocat": "university" }, "geometry": { "type": "Point", "coordinates": [ -82.3201616601349, 40.86087635 ] } },
{ "type": "Feature", "properties": { "Institu": "Assemblies of God Theological Seminary", "BillingStr": "1435 North Glenstone Avenue", "Address": "1435 North Glenstone Avenue", "City": "Springfield", "State": "Missouri", "Zip": "65802", "Country": "United States", "addrtype": "place", "addrlocat": "house" }, "geometry": { "type": "Point", "coordinates": [ -93.261555386168098, 37.224293045466098 ] } },
{ "type": "Feature", "properties": { "Institu": "Assiniboine Community College", "BillingStr": "1430 Victoria Ave. East", "Address": "1430 Victoria Ave. East", "City": "Brandon", "State": "Manitoba", "Zip": "R7A 2A9", "Country": "Canada", "addrtype": "highway", "addrlocat": "secondary" }, "geometry": { "type": "Point", "coordinates": [ -99.9385556, 49.8422388 ] } },
{ "type": "Feature", "properties": { "Institu": "Associated Mennonite Biblical Seminary", "BillingStr": "3003 Benham Avenue", "Address": "3003 Benham Avenue", "City": "Elkhart", "State": "Indiana", "Zip": "46517", "Country": "United States", "addrtype": "place", "addrlocat": "house" }, "geometry": { "type": "Point", "coordinates": [ -85.969997646480095, 41.655547135473 ] } },
{ "type": "Feature", "properties": { "Institu": "Assumption College", "BillingStr": "500 Salisbury Street", "Address": "500 Salisbury Street", "City": "Worcester", "State": "Massachusetts", "Zip": "01609-1296", "Country": "United States", "addrtype": "amenity", "addrlocat": "library" }, "geometry": { "type": "Point", "coordinates": [ -71.82959, 42.28936 ] } },
{ "type": "Feature", "properties": { "Institu": "Athabasca University", "BillingStr": "1 University Dr", "Address": "1 University Dr", "City": "Athabasca", "State": "Alberta", "Zip": "T9S 3A3", "Country": "Canada", "addrtype": "building", "addrlocat": "yes" }, "geometry": { "type": "Point", "coordinates": [ -113.308025268237003, 54.7157326 ] } },
{ "type": "Feature", "properties": { "Institu": "ATI Career Training Center - Albuquerque (closed)", "BillingStr": "4575 San Mateo Blvd NE\nSte G130", "Address": "4575 San Mateo Blvd NE", "City": "Albuquerque", "State": "New Mexico", "Zip": "87109", "Country": "United States", "addrtype": "office", "addrlocat": "educational_institution" }, "geometry": { "type": "Point", "coordinates": [ -106.5880945, 35.1341153 ] } },
{ "type": "Feature", "properties": { "Institu": "ATI Career Training Center - Oakland Park (closed)", "BillingStr": "3501 NW 9th Ave", "Address": "3501 NW 9th Ave", "City": "Oakland Park", "State": "Florida", "Zip": "33309", "Country": "United States", "addrtype": "place", "addrlocat": "house" }, "geometry": { "type": "Point", "coordinates": [ -80.154645396228602, 26.170014767427599 ] } },
{ "type": "Feature", "properties": { "Institu": "Atlantic University", "BillingStr": "215 67th Street", "Address": "215 67th Street", "City": "Virginia Beach", "State": "Virginia", "Zip": "23451", "Country": "United States", "addrtype": "building", "addrlocat": "yes" }, "geometry": { "type": "Point", "coordinates": [ -75.9899629, 36.8929714 ] } },
{ "type": "Feature", "properties": { "Institu": "Atlantis University", "BillingStr": "1442 Biscayne Boulevard", "Address": "1442 Biscayne Boulevard", "City": "Miami", "State": "Florida", "Zip": "33132", "Country": "United States", "addrtype": "place", "addrlocat": "house" }, "geometry": { "type": "Point", "coordinates": [ -80.1894906, 25.7889244 ] } },
{ "type": "Feature", "properties": { "Institu": "Auburn University -  Montgomery", "BillingStr": "7400 East Drive", "Address": "7400 East Drive", "City": "Montgomery", "State": "Alabama", "Zip": "36124-4023", "Country": "United States", "addrtype": "place", "addrlocat": "house" }, "geometry": { "type": "Point", "coordinates": [ -86.172575, 32.367888 ] } },
{ "type": "Feature", "properties": { "Institu": "Auburn University Main Campus", "BillingStr": "282 Quad Drive\nQuad Center Suite 129", "Address": "282 Quad Drive", "City": "Auburn", "State": "Alabama", "Zip": "36849", "Country": "United States", "addrtype": "building", "addrlocat": "yes" }, "geometry": { "type": "Point", "coordinates": [ -85.484831900710205, 32.6024054 ] } },
{ "type": "Feature", "properties": { "Institu": "Augsburg University", "BillingStr": "731 21st Avenue South", "Address": "731 21st Avenue South", "City": "Minneapolis", "State": "Minnesota", "Zip": "55454", "Country": "United States", "addrtype": "place", "addrlocat": "house" }, "geometry": { "type": "Point", "coordinates": [ -93.242382795918402, 44.966164836734698 ] } },
{ "type": "Feature", "properties": { "Institu": "Augusta University", "BillingStr": "1120 15th Street", "Address": "1120 15th Street", "City": "Augusta", "State": "Georgia", "Zip": "30912", "Country": "United States", "addrtype": "amenity", "addrlocat": "hospital" }, "geometry": { "type": "Point", "coordinates": [ -81.989816746265703, 33.47110005 ] } },
{ "type": "Feature", "properties": { "Institu": "Augustana College", "BillingStr": "639 38th Street", "Address": "639 38th Street", "City": "Rock Island", "State": "Illinois", "Zip": "61201-2296", "Country": "United States", "addrtype": "building", "addrlocat": "yes" }, "geometry": { "type": "Point", "coordinates": [ -90.547210156598197, 41.5052469 ] } },
{ "type": "Feature", "properties": { "Institu": "Aurora University", "BillingStr": "347 South Gladstone Avenue", "Address": "347 South Gladstone Avenue", "City": "Aurora", "State": "Illinois", "Zip": "60506-4892", "Country": "United States", "addrtype": "place", "addrlocat": "house" }, "geometry": { "type": "Point", "coordinates": [ -88.346968836734703, 41.754939428571397 ] } },
{ "type": "Feature", "properties": { "Institu": "Austin Peay State University", "BillingStr": "601 College Street", "Address": "601 College Street", "City": "Clarksville", "State": "Tennessee", "Zip": "37044-4448", "Country": "United States", "addrtype": "amenity", "addrlocat": "university" }, "geometry": { "type": "Point", "coordinates": [ -87.354308544403196, 36.53429655 ] } },
{ "type": "Feature", "properties": { "Institu": "Austin Presbyterian Theological Seminary", "BillingStr": "100 East 27th Street", "Address": "100 East 27th Street", "City": "Austin", "State": "Texas", "Zip": "78705", "Country": "United States", "addrtype": "building", "addrlocat": "yes" }, "geometry": { "type": "Point", "coordinates": [ -97.737717175228298, 30.292593 ] } },
{ "type": "Feature", "properties": { "Institu": "Ave Maria College (closed)", "BillingStr": "300 W Forest Avenue", "Address": "300 W Forest Avenue", "City": "Ypsilanti", "State": "Michigan", "Zip": "48197", "Country": "United States", "addrtype": "place", "addrlocat": "house" }, "geometry": { "type": "Point", "coordinates": [ -83.616311, 42.24883 ] } },
{ "type": "Feature", "properties": { "Institu": "Ave Maria University", "BillingStr": "5050 Ave Maria Blvd", "Address": "5050 Ave Maria Blvd", "City": "Ave Maria", "State": "Florida", "Zip": "34142", "Country": "United States", "addrtype": "place", "addrlocat": "house" }, "geometry": { "type": "Point", "coordinates": [ -81.4380969877095, 26.337679395530898 ] } },
{ "type": "Feature", "properties": { "Institu": "AVEDA Institute - Washington", "BillingStr": "713 7th St NW", "Address": "713 7th St NW", "City": "Washington", "State": "District of Columbia", "Zip": "20001", "Country": "United States", "addrtype": "shop", "addrlocat": "hairdresser" }, "geometry": { "type": "Point", "coordinates": [ -77.02171, 38.899234 ] } },
{ "type": "Feature", "properties": { "Institu": "Averett University", "BillingStr": "420 West Main Street", "Address": "420 West Main Street", "City": "Danville", "State": "Virginia", "Zip": "24541", "Country": "United States", "addrtype": "amenity", "addrlocat": "university" }, "geometry": { "type": "Point", "coordinates": [ -79.414520516284796, 36.5789301 ] } },
{ "type": "Feature", "properties": { "Institu": "Avila University", "BillingStr": "11901 Wornall Road", "Address": "11901 Wornall Road", "City": "Kansas City", "State": "Missouri", "Zip": "64145", "Country": "United States", "addrtype": "amenity", "addrlocat": "university" }, "geometry": { "type": "Point", "coordinates": [ -94.591486237321504, 38.9131585 ] } },
{ "type": "Feature", "properties": { "Institu": "Azusa Pacific University", "BillingStr": "901 East Alosta", "Address": "901 East Alosta", "City": "Azusa", "State": "California", "Zip": "91702-7000", "Country": "United States", "addrtype": "place", "addrlocat": "house" }, "geometry": { "type": "Point", "coordinates": [ -117.889038473388993, 34.128597860186801 ] } },
{ "type": "Feature", "properties": { "Institu": "B. H. Carroll Theological Institute", "BillingStr": "6500 N. Belt Line Rd\nSte 100", "Address": "6500 N. Belt Line Rd", "City": "Irving", "State": "Texas", "Zip": "75063", "Country": "United States", "addrtype": "place", "addrlocat": "house" }, "geometry": { "type": "Point", "coordinates": [ -96.99084, 32.897574 ] } },
{ "type": "Feature", "properties": { "Institu": "Babson College", "BillingStr": "231 Forest Street", "Address": "231 Forest Street", "City": "Babson Park", "State": "Massachusetts", "Zip": "2457", "Country": "United States", "addrtype": "highway", "addrlocat": "secondary" }, "geometry": { "type": "Point", "coordinates": [ -71.25066, 42.29235 ] } },
{ "type": "Feature", "properties": { "Institu": "Bacone College", "BillingStr": "2299 Old Bacone Road", "Address": "2299 Old Bacone Road", "City": "Muskogee", "State": "Oklahoma", "Zip": "74403", "Country": "United States", "addrtype": "place", "addrlocat": "house" }, "geometry": { "type": "Point", "coordinates": [ -95.334551293304102, 35.774106995767802 ] } },
{ "type": "Feature", "properties": { "Institu": "Bahamas Technical & Vocational Institute", "BillingStr": "Old Trail Road\nPO Box N-4934", "Address": "Old Trail Road", "City": "Nassau", "State": null, "Zip": null, "Country": "Bahamas", "addrtype": "highway", "addrlocat": "secondary" }, "geometry": { "type": "Point", "coordinates": [ -77.3276452, 25.0451571 ] } },
{ "type": "Feature", "properties": { "Institu": "Bainbridge State College", "BillingStr": "2500 East Shotwell St", "Address": "2500 East Shotwell St", "City": "Bainbridge", "State": "Georgia", "Zip": "39818", "Country": "United States", "addrtype": "amenity", "addrlocat": "college" }, "geometry": { "type": "Point", "coordinates": [ -84.534410387359898, 30.8991276 ] } },
{ "type": "Feature", "properties": { "Institu": "Baker College of Clinton Township", "BillingStr": "34950 Little Mack Ave", "Address": "34950 Little Mack Ave", "City": "Clinton Township", "State": "Michigan", "Zip": "48035", "Country": "United States", "addrtype": "place", "addrlocat": "house" }, "geometry": { "type": "Point", "coordinates": [ -82.910120241379303, 42.553373103448301 ] } },
{ "type": "Feature", "properties": { "Institu": "Baker College of Flint", "BillingStr": "1050 West Bristol Road", "Address": "1050 West Bristol Road", "City": "Flint", "State": "Michigan", "Zip": "48507", "Country": "United States", "addrtype": "amenity", "addrlocat": "college" }, "geometry": { "type": "Point", "coordinates": [ -83.696725055880094, 42.9762426 ] } },
{ "type": "Feature", "properties": { "Institu": "Bakersfield College", "BillingStr": "1801 Panorama Drive", "Address": "1801 Panorama Drive", "City": "Bakersfield", "State": "California", "Zip": "93305", "Country": "United States", "addrtype": "place", "addrlocat": "house" }, "geometry": { "type": "Point", "coordinates": [ -118.973555, 35.410826 ] } },
{ "type": "Feature", "properties": { "Institu": "Bakke Graduate University (cancelled)", "BillingStr": "1013 8th Avenue", "Address": "1013 8th Avenue", "City": "Seattle", "State": "Washington", "Zip": "98104", "Country": "United States", "addrtype": "amenity", "addrlocat": "place_of_worship" }, "geometry": { "type": "Point", "coordinates": [ -122.329473165080998, 47.60810355 ] } },
{ "type": "Feature", "properties": { "Institu": "Baldwin Wallace University", "BillingStr": "275 Eastland Road", "Address": "275 Eastland Road", "City": "Berea", "State": "Ohio", "Zip": "44017", "Country": "United States", "addrtype": "place", "addrlocat": "house" }, "geometry": { "type": "Point", "coordinates": [ -81.844017473684204, 41.368461210526299 ] } },
{ "type": "Feature", "properties": { "Institu": "Baltimore City Community College", "BillingStr": "2901 Liberty Heights Avenue", "Address": "2901 Liberty Heights Avenue", "City": "Baltimore", "State": "Maryland", "Zip": "21215", "Country": "United States", "addrtype": "building", "addrlocat": "yes" }, "geometry": { "type": "Point", "coordinates": [ -76.662650592953, 39.32072915 ] } },
{ "type": "Feature", "properties": { "Institu": "Baltimore Hebrew University (closed)", "BillingStr": "5800 Park Heights Ave", "Address": "5800 Park Heights Ave", "City": "Baltimore", "State": "Maryland", "Zip": "21215", "Country": "United States", "addrtype": "place", "addrlocat": "house" }, "geometry": { "type": "Point", "coordinates": [ -76.686812488288396, 39.354125710288201 ] } },
{ "type": "Feature", "properties": { "Institu": "Baltimore International College (CANCELLED)", "BillingStr": "17 S Commerce Street", "Address": "17 S Commerce Street", "City": "Baltimore", "State": "Maryland", "Zip": "21202", "Country": "United States", "addrtype": "place", "addrlocat": "house" }, "geometry": { "type": "Point", "coordinates": [ -76.6100722222222, 39.288801888888898 ] } },
{ "type": "Feature", "properties": { "Institu": "Bank Street College of Education", "BillingStr": "610 West 112th Street", "Address": "610 West 112th Street", "City": "New York", "State": "New York", "Zip": "10025", "Country": "United States", "addrtype": "building", "addrlocat": "yes" }, "geometry": { "type": "Point", "coordinates": [ -73.9666849064361, 40.80556085 ] } },
{ "type": "Feature", "properties": { "Institu": "Baptist Bible College", "BillingStr": "628 East Kearney Street", "Address": "628 East Kearney Street", "City": "Springfield", "State": "Missouri", "Zip": "65803", "Country": "United States", "addrtype": "place", "addrlocat": "house" }, "geometry": { "type": "Point", "coordinates": [ -93.284991142708904, 37.240567 ] } },
{ "type": "Feature", "properties": { "Institu": "Baptist College of Health Sciences", "BillingStr": "1003 Monroe Avenue", "Address": "1003 Monroe Avenue", "City": "Memphis", "State": "Tennessee", "Zip": "38104", "Country": "United States", "addrtype": "place", "addrlocat": "house" }, "geometry": { "type": "Point", "coordinates": [ -90.028192163265302, 35.138930775510197 ] } },
{ "type": "Feature", "properties": { "Institu": "Baptist Theological Seminary At Richmond - Unsubscribed", "BillingStr": "3400 Brook Road", "Address": "3400 Brook Road", "City": "Richmond", "State": "Virginia", "Zip": "23227", "Country": "United States", "addrtype": "highway", "addrlocat": "secondary" }, "geometry": { "type": "Point", "coordinates": [ -77.4490639, 37.5701402 ] } },
{ "type": "Feature", "properties": { "Institu": "Barber-Scotia College", "BillingStr": "145 Cabarrus Avenue  West", "Address": "145 Cabarrus Avenue  West", "City": "Concord", "State": "North Carolina", "Zip": "28025", "Country": "United States", "addrtype": "place", "addrlocat": "house" }, "geometry": { "type": "Point", "coordinates": [ -80.585758342726905, 35.4071489867964 ] } },
{ "type": "Feature", "properties": { "Institu": "Bard College", "BillingStr": "30 Campus Rd", "Address": "30 Campus Rd", "City": "Annandale-On-Hudson", "State": "New York", "Zip": "12504", "Country": "United States", "addrtype": "amenity", "addrlocat": "college" }, "geometry": { "type": "Point", "coordinates": [ -73.910724221196105, 42.0225482 ] } },
{ "type": "Feature", "properties": { "Institu": "Barnard College", "BillingStr": "3009 Broadway", "Address": "3009 Broadway", "City": "New York", "State": "New York", "Zip": "10027", "Country": "United States", "addrtype": "highway", "addrlocat": "primary" }, "geometry": { "type": "Point", "coordinates": [ -73.9816902, 40.7674211 ] } },
{ "type": "Feature", "properties": { "Institu": "Barry University", "BillingStr": "11300 NE 2nd Avenue", "Address": "11300 NE 2nd Avenue", "City": "Miami Shores", "State": "Florida", "Zip": "33161-6695", "Country": "United States", "addrtype": "amenity", "addrlocat": "university" }, "geometry": { "type": "Point", "coordinates": [ -80.196154289989096, 25.8788774 ] } },
{ "type": "Feature", "properties": { "Institu": "Bastyr University", "BillingStr": "14500 Juanita Dr NE", "Address": "14500 Juanita Dr NE", "City": "Kenmore", "State": "Washington", "Zip": "98028", "Country": "United States", "addrtype": "highway", "addrlocat": "secondary" }, "geometry": { "type": "Point", "coordinates": [ -122.244478, 47.7291509 ] } },
{ "type": "Feature", "properties": { "Institu": "Bates College", "BillingStr": "23 Campus Ave.", "Address": "23 Campus Ave.", "City": "Lewiston", "State": "Maine", "Zip": "4240", "Country": "United States", "addrtype": "place", "addrlocat": "house" }, "geometry": { "type": "Point", "coordinates": [ -70.206485916666693, 44.105404875 ] } },
{ "type": "Feature", "properties": { "Institu": "Baton Rouge Community College", "BillingStr": "201 Community College Drive", "Address": "201 Community College Drive", "City": "Baton Rouge", "State": "Louisiana", "Zip": "70806", "Country": "United States", "addrtype": "highway", "addrlocat": "residential" }, "geometry": { "type": "Point", "coordinates": [ -91.1359142, 30.44767 ] } },
{ "type": "Feature", "properties": { "Institu": "Baton Rouge General Medical Center School of Nursing", "BillingStr": "3616 North Boulevard", "Address": "3616 North Boulevard", "City": "Baton Rouge", "State": "Louisiana", "Zip": "70806", "Country": "United States", "addrtype": "place", "addrlocat": "house" }, "geometry": { "type": "Point", "coordinates": [ -91.152754214285693, 30.448356448979599 ] } },
{ "type": "Feature", "properties": { "Institu": "Bay de Noc Community College", "BillingStr": "2001 N Lincoln Road", "Address": "2001 N Lincoln Road", "City": "Escanaba", "State": "Michigan", "Zip": "49829", "Country": "United States", "addrtype": "leisure", "addrlocat": "fitness_centre" }, "geometry": { "type": "Point", "coordinates": [ -87.084591098744198, 45.77186815 ] } },
{ "type": "Feature", "properties": { "Institu": "Bay Path University", "BillingStr": "588 Longmeadow Street", "Address": "588 Longmeadow Street", "City": "Longmeadow", "State": "Massachusetts", "Zip": "1106", "Country": "United States", "addrtype": "amenity", "addrlocat": "library" }, "geometry": { "type": "Point", "coordinates": [ -72.58182, 42.0546 ] } },
{ "type": "Feature", "properties": { "Institu": "Bay State College", "BillingStr": "122 Commonwealth Avenue", "Address": "122 Commonwealth Avenue", "City": "Boston", "State": "Massachusetts", "Zip": "2116", "Country": "United States", "addrtype": "amenity", "addrlocat": "library" }, "geometry": { "type": "Point", "coordinates": [ -71.07645, 42.35205 ] } },
{ "type": "Feature", "properties": { "Institu": "Baylor College of Medicine", "BillingStr": "One Baylor Plaza\nMS:  BCM365", "Address": "One Baylor Plaza", "City": "Houston", "State": "Texas", "Zip": "77030", "Country": "United States", "addrtype": "highway", "addrlocat": "service" }, "geometry": { "type": "Point", "coordinates": [ -95.396807, 29.7107866 ] } },
{ "type": "Feature", "properties": { "Institu": "Baylor University", "BillingStr": "1301 S University Parks Dr.", "Address": "1301 S University Parks Dr.", "City": "Waco", "State": "Texas", "Zip": "76798", "Country": "United States", "addrtype": "place", "addrlocat": "house" }, "geometry": { "type": "Point", "coordinates": [ -97.117401505963002, 31.5517002370798 ] } },
{ "type": "Feature", "properties": { "Institu": "Beacon College", "BillingStr": "105 E Main St", "Address": "105 E Main St", "City": "Leesburg", "State": "Florida", "Zip": "34748", "Country": "United States", "addrtype": "building", "addrlocat": "yes" }, "geometry": { "type": "Point", "coordinates": [ -81.874814799409194, 28.81078645 ] } },
{ "type": "Feature", "properties": { "Institu": "Beal College", "BillingStr": "99 Farm Road", "Address": "99 Farm Road", "City": "Bangor", "State": "Maine", "Zip": "4401", "Country": "United States", "addrtype": "place", "addrlocat": "house" }, "geometry": { "type": "Point", "coordinates": [ -68.784127794656499, 44.785893264623901 ] } },
{ "type": "Feature", "properties": { "Institu": "Becker College", "BillingStr": "61 Sever St", "Address": "61 Sever St", "City": "Worcester", "State": "Massachusetts", "Zip": "1609", "Country": "United States", "addrtype": "amenity", "addrlocat": "library" }, "geometry": { "type": "Point", "coordinates": [ -71.8123238, 42.2691102 ] } },
{ "type": "Feature", "properties": { "Institu": "Beckfield College", "BillingStr": "16 Spiral Dr", "Address": "16 Spiral Dr", "City": "Florence", "State": "Kentucky", "Zip": "41042", "Country": "United States", "addrtype": "place", "addrlocat": "house" }, "geometry": { "type": "Point", "coordinates": [ -84.641918017097893, 39.0141777173774 ] } },
{ "type": "Feature", "properties": { "Institu": "Belhaven University", "BillingStr": "1500 Peachtree Street", "Address": "1500 Peachtree Street", "City": "Jackson", "State": "Mississippi", "Zip": "39202", "Country": "United States", "addrtype": "amenity", "addrlocat": "university" }, "geometry": { "type": "Point", "coordinates": [ -90.169076646828103, 32.3201811 ] } },
{ "type": "Feature", "properties": { "Institu": "Bellarmine University", "BillingStr": "2001 Newburg Road", "Address": "2001 Newburg Road", "City": "Louisville", "State": "Kentucky", "Zip": "40205", "Country": "United States", "addrtype": "amenity", "addrlocat": "university" }, "geometry": { "type": "Point", "coordinates": [ -85.705841137510703, 38.2187504 ] } },
{ "type": "Feature", "properties": { "Institu": "Bellingham Technical College", "BillingStr": "3028 Lindbergh Avenue", "Address": "3028 Lindbergh Avenue", "City": "Bellingham", "State": "Washington", "Zip": "98225", "Country": "United States", "addrtype": "place", "addrlocat": "house" }, "geometry": { "type": "Point", "coordinates": [ -122.512190837787998, 48.765309555731299 ] } },
{ "type": "Feature", "properties": { "Institu": "Belmont Abbey College", "BillingStr": "100 Belmont Mount Holly Road", "Address": "100 Belmont Mount Holly Road", "City": "Belmont", "State": "North Carolina", "Zip": "28012", "Country": "United States", "addrtype": "place", "addrlocat": "house" }, "geometry": { "type": "Point", "coordinates": [ -81.042449, 35.263615 ] } },
{ "type": "Feature", "properties": { "Institu": "Belmont University", "BillingStr": "1900 Belmont Blvd", "Address": "1900 Belmont Blvd", "City": "Nashville", "State": "Tennessee", "Zip": "37212", "Country": "United States", "addrtype": "highway", "addrlocat": "tertiary" }, "geometry": { "type": "Point", "coordinates": [ -86.801926, 36.1021364 ] } },
{ "type": "Feature", "properties": { "Institu": "Beloit College", "BillingStr": "700 College Street", "Address": "700 College Street", "City": "Beloit", "State": "Wisconsin", "Zip": "53511", "Country": "United States", "addrtype": "tourism", "addrlocat": "museum" }, "geometry": { "type": "Point", "coordinates": [ -89.031675251090306, 42.5020543 ] } },
{ "type": "Feature", "properties": { "Institu": "Benedictine University", "BillingStr": "5700 College Road", "Address": "5700 College Road", "City": "Lisle", "State": "Illinois", "Zip": "60532", "Country": "United States", "addrtype": "amenity", "addrlocat": "place_of_worship" }, "geometry": { "type": "Point", "coordinates": [ -88.0971926, 41.7746003 ] } },
{ "type": "Feature", "properties": { "Institu": "Benjamin Franklin Institute of Technology", "BillingStr": "41 Berkeley Street", "Address": "41 Berkeley Street", "City": "Boston", "State": "Massachusetts", "Zip": "2116", "Country": "United States", "addrtype": "amenity", "addrlocat": "university" }, "geometry": { "type": "Point", "coordinates": [ -71.070108243128601, 42.3459693 ] } },
{ "type": "Feature", "properties": { "Institu": "Bennett College", "BillingStr": "900 E. Washington St.", "Address": "900 E. Washington St.", "City": "Greensboro", "State": "North Carolina", "Zip": "27401", "Country": "United States", "addrtype": "place", "addrlocat": "house" }, "geometry": { "type": "Point", "coordinates": [ -79.780312, 36.069241 ] } },
{ "type": "Feature", "properties": { "Institu": "Bentley University", "BillingStr": "175 Forest Street", "Address": "175 Forest Street", "City": "Waltham", "State": "Massachusetts", "Zip": "2452", "Country": "United States", "addrtype": "amenity", "addrlocat": "university" }, "geometry": { "type": "Point", "coordinates": [ -71.222068056889398, 42.3858974 ] } },
{ "type": "Feature", "properties": { "Institu": "Bergen Community College", "BillingStr": "400 Paramus Road", "Address": "400 Paramus Road", "City": "Paramus", "State": "New Jersey", "Zip": "7652", "Country": "United States", "addrtype": "place", "addrlocat": "house" }, "geometry": { "type": "Point", "coordinates": [ -74.094, 40.953143 ] } },
{ "type": "Feature", "properties": { "Institu": "Bergin University of Canine Studies", "BillingStr": "10201 Old Redwood Hwy", "Address": "10201 Old Redwood Hwy", "City": "Penngrove", "State": "California", "Zip": "949519671", "Country": "United States", "addrtype": "place", "addrlocat": "house" }, "geometry": { "type": "Point", "coordinates": [ -122.68244, 38.303886 ] } },
{ "type": "Feature", "properties": { "Institu": "Berkeley College", "BillingStr": "44 Rifle Camp Road", "Address": "44 Rifle Camp Road", "City": "Woodland Park", "State": "New Jersey", "Zip": "7424", "Country": "United States", "addrtype": "place", "addrlocat": "house" }, "geometry": { "type": "Point", "coordinates": [ -74.186823859976599, 40.900228172616401 ] } },
{ "type": "Feature", "properties": { "Institu": "Berklee College of Music", "BillingStr": "1140 Boylston Street", "Address": "1140 Boylston Street", "City": "Boston", "State": "Massachusetts", "Zip": "2215", "Country": "United States", "addrtype": "amenity", "addrlocat": "college" }, "geometry": { "type": "Point", "coordinates": [ -71.089528426371899, 42.34656975 ] } },
{ "type": "Feature", "properties": { "Institu": "Berks Technical Institute UNSUBSCRIBED", "BillingStr": "2205 Ridgewood Road", "Address": "2205 Ridgewood Road", "City": "Wyomissing", "State": "Pennsylvania", "Zip": "19610", "Country": "United States", "addrtype": "place", "addrlocat": "house" }, "geometry": { "type": "Point", "coordinates": [ -75.977666162602105, 40.344797351350302 ] } },
{ "type": "Feature", "properties": { "Institu": "Berkshire Community College", "BillingStr": "1350 West Street", "Address": "1350 West Street", "City": "Pittsfield", "State": "Massachusetts", "Zip": "1201", "Country": "United States", "addrtype": "place", "addrlocat": "house" }, "geometry": { "type": "Point", "coordinates": [ -73.3166072, 42.4570252 ] } },
{ "type": "Feature", "properties": { "Institu": "Bethany College of Missions", "BillingStr": "6820 Auto Club Road", "Address": "6820 Auto Club Road", "City": "Bloomington", "State": "Minnesota", "Zip": "55438", "Country": "United States", "addrtype": "place", "addrlocat": "house" }, "geometry": { "type": "Point", "coordinates": [ -93.370903, 44.79464 ] } },
{ "type": "Feature", "properties": { "Institu": "Bethany Theological Seminary", "BillingStr": "615 National Road West", "Address": "615 National Road West", "City": "Richmond", "State": "Indiana", "Zip": "47374", "Country": "United States", "addrtype": "amenity", "addrlocat": "college" }, "geometry": { "type": "Point", "coordinates": [ -84.9107159, 39.826236 ] } },
{ "type": "Feature", "properties": { "Institu": "Bethany University", "BillingStr": "800 Bethany Drive", "Address": "800 Bethany Drive", "City": "Scotts Valley", "State": "California", "Zip": "95066", "Country": "United States", "addrtype": "place", "addrlocat": "house" }, "geometry": { "type": "Point", "coordinates": [ -121.994765131075994, 37.0743549911627 ] } },
{ "type": "Feature", "properties": { "Institu": "Bethel Seminary - San Diego", "BillingStr": "6116 Arosa Street", "Address": "6116 Arosa Street", "City": "San Diego", "State": "California", "Zip": "92115", "Country": "United States", "addrtype": "amenity", "addrlocat": "school" }, "geometry": { "type": "Point", "coordinates": [ -117.066015496288003, 32.7654341 ] } },
{ "type": "Feature", "properties": { "Institu": "Bethel University", "BillingStr": "1001 Bethel Circle", "Address": "1001 Bethel Circle", "City": "Mishawaka", "State": "Indiana", "Zip": "46545", "Country": "United States", "addrtype": "amenity", "addrlocat": "college" }, "geometry": { "type": "Point", "coordinates": [ -86.196275951250001, 41.67835685 ] } },
{ "type": "Feature", "properties": { "Institu": "Bethesda University (unsubscribed)", "BillingStr": "730 N. Euclid St.", "Address": "730 N. Euclid St.", "City": "Anaheim", "State": "California", "Zip": "92801", "Country": "United States", "addrtype": "place", "addrlocat": "house" }, "geometry": { "type": "Point", "coordinates": [ -117.941514602731004, 33.842213483320997 ] } },
{ "type": "Feature", "properties": { "Institu": "Bethune-Cookman University", "BillingStr": "640 Dr. Mary McLeod Bethune Blvd.", "Address": "640 Dr. Mary McLeod Bethune Blvd.", "City": "Daytona Beach", "State": "Florida", "Zip": "32114", "Country": "United States", "addrtype": "place", "addrlocat": "house" }, "geometry": { "type": "Point", "coordinates": [ -81.031740106074494, 29.211864140438099 ] } },
{ "type": "Feature", "properties": { "Institu": "Biblical Theological Seminary", "BillingStr": "200 North Main Street", "Address": "200 North Main Street", "City": "Hatfield", "State": "Pennsylvania", "Zip": "19440", "Country": "United States", "addrtype": "place", "addrlocat": "house" }, "geometry": { "type": "Point", "coordinates": [ -75.302816, 40.281565 ] } },
{ "type": "Feature", "properties": { "Institu": "Biola University", "BillingStr": "13800 Biola Avenue", "Address": "13800 Biola Avenue", "City": "La Mirada", "State": "California", "Zip": "90639", "Country": "United States", "addrtype": "amenity", "addrlocat": "university" }, "geometry": { "type": "Point", "coordinates": [ -118.015131929434006, 33.9063873 ] } },
{ "type": "Feature", "properties": { "Institu": "Birmingham-Southern College", "BillingStr": "900 Arkadelphia Rd\nBox 549008", "Address": "900 Arkadelphia Rd", "City": "Birmingham", "State": "Alabama", "Zip": "35254", "Country": "United States", "addrtype": "highway", "addrlocat": "primary" }, "geometry": { "type": "Point", "coordinates": [ -86.8494416, 33.5230516 ] } },
{ "type": "Feature", "properties": { "Institu": "Bishop State Community College", "BillingStr": "351 N. Broad Street", "Address": "351 N. Broad Street", "City": "Mobile", "State": "Alabama", "Zip": "36603", "Country": "United States", "addrtype": "place", "addrlocat": "house" }, "geometry": { "type": "Point", "coordinates": [ -88.056394239495802, 30.692243294117599 ] } },
{ "type": "Feature", "properties": { "Institu": "Bishops University", "BillingStr": "2600 College Street", "Address": "2600 College Street", "City": "Sherbrooke", "State": "Quebec", "Zip": "J1M 0C8", "Country": "Canada", "addrtype": "highway", "addrlocat": "primary" }, "geometry": { "type": "Point", "coordinates": [ -71.8559118, 45.3663242 ] } },
{ "type": "Feature", "properties": { "Institu": "Black Hawk College", "BillingStr": "6600-34th Avenue", "Address": "6600-34th Avenue", "City": "Moline", "State": "Illinois", "Zip": "61265", "Country": "United States", "addrtype": "place", "addrlocat": "house" }, "geometry": { "type": "Point", "coordinates": [ -90.449270659505004, 41.478038671295202 ] } },
{ "type": "Feature", "properties": { "Institu": "Black Hills State University", "BillingStr": "1200 University Street", "Address": "1200 University Street", "City": "Spearfish", "State": "South Dakota", "Zip": "57799-9502", "Country": "United States", "addrtype": "place", "addrlocat": "house" }, "geometry": { "type": "Point", "coordinates": [ -103.870652, 44.496699 ] } },
{ "type": "Feature", "properties": { "Institu": "Blackburn College", "BillingStr": "700 College Avenue", "Address": "700 College Avenue", "City": "Carlinville", "State": "Illinois", "Zip": "62626", "Country": "United States", "addrtype": "highway", "addrlocat": "residential" }, "geometry": { "type": "Point", "coordinates": [ -89.872948, 39.282851 ] } },
{ "type": "Feature", "properties": { "Institu": "Blessing Rieman College of Nursing", "BillingStr": "11th & Broadway\nBox 7005", "Address": "11th & Broadway", "City": "Quincy", "State": "Illinois", "Zip": "62305-7005", "Country": "United States", "addrtype": "highway", "addrlocat": "primary" }, "geometry": { "type": "Point", "coordinates": [ -91.33392, 39.935155 ] } },
{ "type": "Feature", "properties": { "Institu": "Blinn College", "BillingStr": "902 College Avenue", "Address": "902 College Avenue", "City": "Brenham", "State": "Texas", "Zip": "77833", "Country": "United States", "addrtype": "amenity", "addrlocat": "college" }, "geometry": { "type": "Point", "coordinates": [ -96.407803584770207, 30.1598502 ] } },
{ "type": "Feature", "properties": { "Institu": "Bloomfield College", "BillingStr": "467 Franklin St.", "Address": "467 Franklin St.", "City": "Bloomfield", "State": "New Jersey", "Zip": "7003", "Country": "United States", "addrtype": "place", "addrlocat": "house" }, "geometry": { "type": "Point", "coordinates": [ -74.196503615965696, 40.794222187735897 ] } },
{ "type": "Feature", "properties": { "Institu": "Blue Mountain Community College", "BillingStr": "2411 NW Carden Ave", "Address": "2411 NW Carden Ave", "City": "Pendleton", "State": "Oregon", "Zip": "97801", "Country": "United States", "addrtype": "place", "addrlocat": "house" }, "geometry": { "type": "Point", "coordinates": [ -118.814038273947006, 45.672924559172202 ] } },
{ "type": "Feature", "properties": { "Institu": "Blue Ridge Community and Technical College", "BillingStr": "13650 Apple Harvest Drive", "Address": "13650 Apple Harvest Drive", "City": "Martinsburg", "State": "West Virginia", "Zip": "25403", "Country": "United States", "addrtype": "amenity", "addrlocat": "school" }, "geometry": { "type": "Point", "coordinates": [ -78.001695373222603, 39.4356987 ] } },
{ "type": "Feature", "properties": { "Institu": "Bluefield College", "BillingStr": "3000 College Avenue", "Address": "3000 College Avenue", "City": "Bluefield", "State": "Virginia", "Zip": "24605", "Country": "United States", "addrtype": "amenity", "addrlocat": "university" }, "geometry": { "type": "Point", "coordinates": [ -81.248002399532197, 37.24510425 ] } },
{ "type": "Feature", "properties": { "Institu": "Bluefield State College", "BillingStr": "219 Rock Street", "Address": "219 Rock Street", "City": "Bluefield", "State": "West Virginia", "Zip": "24701", "Country": "United States", "addrtype": "amenity", "addrlocat": "university" }, "geometry": { "type": "Point", "coordinates": [ -81.2387227, 37.266515 ] } },
{ "type": "Feature", "properties": { "Institu": "Bluffton University", "BillingStr": "1 University Drive", "Address": "1 University Drive", "City": "Bluffton", "State": "Ohio", "Zip": "45817", "Country": "United States", "addrtype": "highway", "addrlocat": "residential" }, "geometry": { "type": "Point", "coordinates": [ -83.898844, 40.895523 ] } },
{ "type": "Feature", "properties": { "Institu": "Bob Jones University", "BillingStr": "1700 Wade Hampton Blvd", "Address": "1700 Wade Hampton Blvd", "City": "Greenville", "State": "South Carolina", "Zip": "29614-0001", "Country": "United States", "addrtype": "highway", "addrlocat": "bus_stop" }, "geometry": { "type": "Point", "coordinates": [ -82.370487, 34.872246 ] } },
{ "type": "Feature", "properties": { "Institu": "Bohecker College", "BillingStr": "653 Enterprise Parkway", "Address": "653 Enterprise Parkway", "City": "Ravenna", "State": "Ohio", "Zip": "44266", "Country": "United States", "addrtype": "place", "addrlocat": "house" }, "geometry": { "type": "Point", "coordinates": [ -81.248994201453399, 41.180308011787297 ] } },
{ "type": "Feature", "properties": { "Institu": "Boise State University", "BillingStr": "1910 University Drive", "Address": "1910 University Drive", "City": "Boise", "State": "Idaho", "Zip": "83725", "Country": "United States", "addrtype": "place", "addrlocat": "house" }, "geometry": { "type": "Point", "coordinates": [ -116.204805112244998, 43.602916948979598 ] } },
{ "type": "Feature", "properties": { "Institu": "Bossier Parish Community College", "BillingStr": "6220 East Texas Street", "Address": "6220 East Texas Street", "City": "Bossier City", "State": "Louisiana", "Zip": "71111", "Country": "United States", "addrtype": "highway", "addrlocat": "primary" }, "geometry": { "type": "Point", "coordinates": [ -93.7178695, 32.5283848 ] } },
{ "type": "Feature", "properties": { "Institu": "Boston Architectural College", "BillingStr": "320 Newbury Street", "Address": "320 Newbury Street", "City": "Boston", "State": "Massachusetts", "Zip": "2115", "Country": "United States", "addrtype": "place", "addrlocat": "house" }, "geometry": { "type": "Point", "coordinates": [ -71.085772, 42.34865 ] } },
{ "type": "Feature", "properties": { "Institu": "Boston Baptist College", "BillingStr": "950 Metropolitan Avenue", "Address": "950 Metropolitan Avenue", "City": "Boston", "State": "Massachusetts", "Zip": "2136", "Country": "United States", "addrtype": "amenity", "addrlocat": "library" }, "geometry": { "type": "Point", "coordinates": [ -71.1090513, 42.2540045 ] } },
{ "type": "Feature", "properties": { "Institu": "Boston College", "BillingStr": "140 Comm Avenue", "Address": "140 Comm Avenue", "City": "Chestnut Hill", "State": "Massachusetts", "Zip": "2467", "Country": "United States", "addrtype": "amenity", "addrlocat": "place_of_worship" }, "geometry": { "type": "Point", "coordinates": [ -71.1671322, 42.3393849 ] } },
{ "type": "Feature", "properties": { "Institu": "Boston College - Weston Jesuit Department (unsubscribed)", "BillingStr": "3 Phillips Place", "Address": "3 Phillips Place", "City": "Cambridge", "State": "Massachusetts", "Zip": "2138", "Country": "United States", "addrtype": "place", "addrlocat": "house" }, "geometry": { "type": "Point", "coordinates": [ -71.123592135634198, 42.376577358673103 ] } },
{ "type": "Feature", "properties": { "Institu": "Boston Graduate School of Psychoanalysis", "BillingStr": "1581 Beacon Street", "Address": "1581 Beacon Street", "City": "Brookline", "State": "Massachusetts", "Zip": "2446", "Country": "United States", "addrtype": "amenity", "addrlocat": "library" }, "geometry": { "type": "Point", "coordinates": [ -71.13198, 42.33942 ] } },
{ "type": "Feature", "properties": { "Institu": "Boston University", "BillingStr": "881 Commonwealth Avenue", "Address": "881 Commonwealth Avenue", "City": "Boston", "State": "Massachusetts", "Zip": "2215", "Country": "United States", "addrtype": "building", "addrlocat": "yes" }, "geometry": { "type": "Point", "coordinates": [ -71.115244541430599, 42.3514374 ] } },
{ "type": "Feature", "properties": { "Institu": "Bowie State University", "BillingStr": "14000 Jericho Park Road", "Address": "14000 Jericho Park Road", "City": "Bowie", "State": "Maryland", "Zip": "20715", "Country": "United States", "addrtype": "amenity", "addrlocat": "public_building" }, "geometry": { "type": "Point", "coordinates": [ -76.7608333, 39.0183333 ] } },
{ "type": "Feature", "properties": { "Institu": "Bradford College (closed)", "BillingStr": "320 South Main Street", "Address": "320 South Main Street", "City": "Bradford", "State": "Massachusetts", "Zip": "01835-7393", "Country": "United States", "addrtype": "amenity", "addrlocat": "college" }, "geometry": { "type": "Point", "coordinates": [ -71.079002090941799, 42.7634537 ] } },
{ "type": "Feature", "properties": { "Institu": "Bradley University", "BillingStr": "1501 W Bradley Ave\nSwords Hall 11", "Address": "1501 W Bradley Ave", "City": "Peoria", "State": "Illinois", "Zip": "61625", "Country": "United States", "addrtype": "amenity", "addrlocat": "university" }, "geometry": { "type": "Point", "coordinates": [ -89.615535625860701, 40.6981131 ] } },
{ "type": "Feature", "properties": { "Institu": "Brandman University", "BillingStr": "16355 Laguna Canyon Road", "Address": "16355 Laguna Canyon Road", "City": "Irvine", "State": "California", "Zip": "92618", "Country": "United States", "addrtype": "building", "addrlocat": "yes" }, "geometry": { "type": "Point", "coordinates": [ -117.768985316089996, 33.6562772 ] } },
{ "type": "Feature", "properties": { "Institu": "Branford Hall Career Institute - Bohemia", "BillingStr": "565 Johnson Ave", "Address": "565 Johnson Ave", "City": "Bohemia", "State": "New York", "Zip": "11716", "Country": "United States", "addrtype": "building", "addrlocat": "yes" }, "geometry": { "type": "Point", "coordinates": [ -73.093793496609706, 40.7778318 ] } },
{ "type": "Feature", "properties": { "Institu": "Brescia University College", "BillingStr": "1285 Western Road", "Address": "1285 Western Road", "City": "London", "State": "Ontario", "Zip": "N6G 1H2", "Country": "Canada", "addrtype": "place", "addrlocat": "house" }, "geometry": { "type": "Point", "coordinates": [ -81.277099, 43.00595 ] } },
{ "type": "Feature", "properties": { "Institu": "Brevard College", "BillingStr": "One Brevard College Drive", "Address": "One Brevard College Drive", "City": "Brevard", "State": "North Carolina", "Zip": "28712", "Country": "United States", "addrtype": "highway", "addrlocat": "residential" }, "geometry": { "type": "Point", "coordinates": [ -82.7311281, 35.2372332 ] } },
{ "type": "Feature", "properties": { "Institu": "Briar Cliff University", "BillingStr": "3303 Rebecca St.", "Address": "3303 Rebecca St.", "City": "Sioux City", "State": "Iowa", "Zip": "51104-2100", "Country": "United States", "addrtype": "highway", "addrlocat": "tertiary" }, "geometry": { "type": "Point", "coordinates": [ -96.4255053, 42.508301 ] } },
{ "type": "Feature", "properties": { "Institu": "Briarcliffe College", "BillingStr": "1055 Stewart Ave", "Address": "1055 Stewart Ave", "City": "Bethpage", "State": "New York", "Zip": "11714", "Country": "United States", "addrtype": "building", "addrlocat": "yes" }, "geometry": { "type": "Point", "coordinates": [ -73.490182899060301, 40.75955975 ] } },
{ "type": "Feature", "properties": { "Institu": "Briarcliffe College - Patchogue", "BillingStr": "225 West Main Street", "Address": "225 West Main Street", "City": "Patchogue", "State": "New York", "Zip": "11772", "Country": "United States", "addrtype": "building", "addrlocat": "yes" }, "geometry": { "type": "Point", "coordinates": [ -73.021037054719002, 40.76644215 ] } },
{ "type": "Feature", "properties": { "Institu": "Briarwood College - CLOSED", "BillingStr": "2279 Mount Vernon Road", "Address": "2279 Mount Vernon Road", "City": "Southington", "State": "Connecticut", "Zip": "6489", "Country": "United States", "addrtype": "highway", "addrlocat": "tertiary" }, "geometry": { "type": "Point", "coordinates": [ -72.9241439, 41.6069078 ] } },
{ "type": "Feature", "properties": { "Institu": "Bridgemont Community and Technical College (merged\/closed)", "BillingStr": "619 2nd Avenue", "Address": "619 2nd Avenue", "City": "Montgomery", "State": "West Virginia", "Zip": "25136", "Country": "United States", "addrtype": "place", "addrlocat": "house" }, "geometry": { "type": "Point", "coordinates": [ -81.327972294198304, 38.180272824570899 ] } },
{ "type": "Feature", "properties": { "Institu": "Bridgeport Hospital School of Nursing", "BillingStr": "200 Mill Hill Avenue", "Address": "200 Mill Hill Avenue", "City": "Bridgeport", "State": "Connecticut", "Zip": "6610", "Country": "United States", "addrtype": "highway", "addrlocat": "tertiary" },